{
  "BSAT": {
    "VenueCode": "BSAT",
    "VenueName": "Baba Cinemas(Archana Theatre)DolbyAtmos:Coimbatore",
    "VenueAddress": "36 52, Devanga High School Road, Sukrawar Pettai, Coimbatore, Tamil Nadu 641002, India",
    "City": "Coimbatore",
    "State": "Tamil Nadu",
    "RegionCode": "COIM",
    "SubRegionCode": "COIM",
    "Latitude": "11.006280",
    "Longitude": "76.956787",
    "AvailableFormats": "2D"
  },
  "RSSM": {
    "VenueCode": "RSSM",
    "VenueName": "Radiance Cinema: Koodal Nagar, Madurai",
    "VenueAddress": "No 326, Athalai Main Road, Sikkandar Savadi, Koodal Nagar, Madurai, Tamil Nadu 625018, India",
    "City": "Madurai",
    "State": "Tamil Nadu",
    "RegionCode": "MADU",
    "SubRegionCode": "MADU",
    "Latitude": "9.971911",
    "Longitude": "78.095011",
    "AvailableFormats": "2D"
  },
  "GCTA": {
    "VenueCode": "GCTA",
    "VenueName": "Gold Cinema: Alwar CG, Manu Marg",
    "VenueAddress": "3rd Floor, Capital Galleria Plot No 4, Manumarg Kabir Colony, Alwar, Rajasthan 301001, India",
    "City": "Alwar",
    "State": "Rajasthan",
    "RegionCode": "ALWR",
    "SubRegionCode": "ALWR",
    "Latitude": "27.5611",
    "Longitude": "76.6048",
    "AvailableFormats": "2D"
  },
  "TOPN": {
    "VenueCode": "TOPN",
    "VenueName": "Topp Notch Digital Cinema: Alwar",
    "VenueAddress": "Neha Complex, Plot Number 19/339, Nehru Garden Road, Indra Colony, Near Nangli Circle, Alwar, Rajasthan 301001, India",
    "City": "Alwar",
    "State": "Rajasthan",
    "RegionCode": "ALWR",
    "SubRegionCode": "ALWR",
    "Latitude": "27.5583",
    "Longitude": "76.6135",
    "AvailableFormats": "2D"
  },
  "MCUS": {
    "VenueCode": "MCUS",
    "VenueName": "Miraj Cinemas: Urban Square Galleria Mall, Alwar",
    "VenueAddress": "Urban Square Galleria Mall, 4th Floor, Shalimar Apna Ghar, Gate No. 1, Near Telco Chowk, Alwar, Rajasthan 301001, India",
    "City": "Alwar",
    "State": "Rajasthan",
    "RegionCode": "ALWR",
    "SubRegionCode": "ALWR",
    "Latitude": "27.6024",
    "Longitude": "76.6314",
    "AvailableFormats": "3D|2D"
  },
  "SHRL": {
    "VenueCode": "SHRL",
    "VenueName": "Shyam Talkies: Margherita",
    "VenueAddress": "Alubari Road, Alubari, Margherita, Assam 786181, India",
    "City": "Margherita",
    "State": "Assam",
    "RegionCode": "MARH",
    "SubRegionCode": "MARH",
    "Latitude": "27.2925",
    "Longitude": "95.6667",
    "AvailableFormats": "2D"
  },
  "UPTP": {
    "VenueCode": "UPTP",
    "VenueName": "Upasana Theatre: Ranni",
    "VenueAddress": "Triuvalla Eraviperoor, Ranni Raod, Near Angadi Post Office, Pathanamthitta, Kerala 689672, India",
    "City": "Pathanamthitta",
    "State": "Kerala",
    "RegionCode": "PTNM",
    "SubRegionCode": "PTNM",
    "Latitude": "9.38196",
    "Longitude": "76.7789",
    "AvailableFormats": "2D"
  },
  "TMMP": {
    "VenueCode": "TMMP",
    "VenueName": "Trinity Movie Max: Pathanamthitta",
    "VenueAddress": "Thiruvalla-Kumbazha Highway, Abban Junction, Near Bank of India, Pathanamthitta, Kerala 689645, India",
    "City": "Pathanamthitta",
    "State": "Kerala",
    "RegionCode": "PTNM",
    "SubRegionCode": "PTNM",
    "Latitude": "9.26462",
    "Longitude": "76.7894",
    "AvailableFormats": "2D"
  },
  "DNRP": {
    "VenueCode": "DNRP",
    "VenueName": "Dhanya Remya: Pathanamthitta",
    "VenueAddress": "NH 183A Valanchuzhy, Pathanamthitta - Kadammanitta Road, Near Aananda Bavan Vegetarian Restaurant, Pathanamthitta, Kerala 689645, India",
    "City": "Pathanamthitta",
    "State": "Kerala",
    "RegionCode": "PTNM",
    "SubRegionCode": "PTNM",
    "Latitude": "9.26514",
    "Longitude": "76.7891",
    "AvailableFormats": "2D"
  },
  "SRLT": {
    "VenueCode": "SRLT",
    "VenueName": "Sreelakshmi Theatre: Ranni",
    "VenueAddress": "State Highway 8, Anathadam Road, Near Pazhavangadi Public Market, Pathanamthitta, Kerala 689673, India",
    "City": "Pathanamthitta",
    "State": "Kerala",
    "RegionCode": "PTNM",
    "SubRegionCode": "PTNM",
    "Latitude": "9.38708",
    "Longitude": "76.7876",
    "AvailableFormats": "2D"
  },
  "RCNS": {
    "VenueCode": "RCNS",
    "VenueName": "Rukmini Cineplex: Bargarh",
    "VenueAddress": "National Highway 6, Balaji City 2 Road, Near Hotel Ganapathi, Bargarh, Odisha 768028, India",
    "City": "Bargarh",
    "State": "Odisha",
    "RegionCode": "BARG",
    "SubRegionCode": "BARG",
    "Latitude": "21.3475",
    "Longitude": "83.6363",
    "AvailableFormats": "2D"
  },
  "DCBH": {
    "VenueCode": "DCBH",
    "VenueName": "Deepali Cinemax: Bargarh",
    "VenueAddress": "Haat Padaa Road, Near Sai Temple, Next To State Bank Of India, Bargarh, Odisha 768028, India",
    "City": "Bargarh",
    "State": "Odisha",
    "RegionCode": "BARG",
    "SubRegionCode": "BARG",
    "Latitude": "21.3315",
    "Longitude": "83.6185",
    "AvailableFormats": "2D"
  },
  "NAGJ": {
    "VenueCode": "NAGJ",
    "VenueName": "Nageshwara A/c Dts: Jaggampeta",
    "VenueAddress": "East Godavari, Near SBI Atm, jaggampeta, Andhra Pradesh 533435, India",
    "City": "jaggampeta",
    "State": "Andhra Pradesh",
    "RegionCode": "JAGG",
    "SubRegionCode": "JAGG",
    "Latitude": "17.1755",
    "Longitude": "82.062",
    "AvailableFormats": "2D"
  },
  "JVRC": {
    "VenueCode": "JVRC",
    "VenueName": "JVR Cinemas: Jaggampeta",
    "VenueAddress": "Gollalagunta Road, Near by Ravulamma Talli Temple, Jaggampeta, Andhra Pradesh 533435, India",
    "City": "Jaggampeta",
    "State": "Andhra Pradesh",
    "RegionCode": "JAGG",
    "SubRegionCode": "JAGG",
    "Latitude": "17.1769",
    "Longitude": "82.0616",
    "AvailableFormats": "2D"
  },
  "KRJG": {
    "VenueCode": "KRJG",
    "VenueName": "Krishnaveni Theatre: Jaggampeta",
    "VenueAddress": "Jaggampeta-Ramavaram Road, Near Bank of Baroda, Jaggampeta, Andhra Pradesh 533435, India",
    "City": "Jaggampeta",
    "State": "Andhra Pradesh",
    "RegionCode": "JAGG",
    "SubRegionCode": "JAGG",
    "Latitude": "17.1752",
    "Longitude": "82.0621",
    "AvailableFormats": "2D"
  },
  "SRTJ": {
    "VenueCode": "SRTJ",
    "VenueName": "Sri Rajaveni Theatre: Jaggampeta",
    "VenueAddress": "Gurrappalem Road, Near Sri Chaitanya School, Jaggampeta, Andhra Pradesh 533435, India",
    "City": "Jaggampeta",
    "State": "Andhra Pradesh",
    "RegionCode": "JAGG",
    "SubRegionCode": "JAGG",
    "Latitude": "17.1763",
    "Longitude": "82.0621",
    "AvailableFormats": "2D"
  },
  "CMXM": {
    "VenueCode": "CMXM",
    "VenueName": "Cinemark Multiplex: Mehkar",
    "VenueAddress": "Shop No 2, Main Road, Near Khanadala, Mehkar, Maharashtra 443301, India",
    "City": "Mehkar",
    "State": "Maharashtra",
    "RegionCode": "MEHK",
    "SubRegionCode": "MEHK",
    "Latitude": "20.1661",
    "Longitude": "76.61",
    "AvailableFormats": "2D"
  },
  "STMI": {
    "VenueCode": "STMI",
    "VenueName": "Santhi Theatre: Madhira",
    "VenueAddress": "Madhira - Wyra Road, Near Meenakshi Automobiles, Madhira, Telangana 507203, India",
    "City": "Madhira",
    "State": "Telangana",
    "RegionCode": "MADR",
    "SubRegionCode": "MADR",
    "Latitude": "16.9305",
    "Longitude": "80.3638",
    "AvailableFormats": "2D"
  },
  "SLST": {
    "VenueCode": "SLST",
    "VenueName": "Lakshmi Srinivasa Theatre: Madhira",
    "VenueAddress": "Illuru - Madhira Road, Madhira - Wyra Road, Near Andhra Bank, Next to Vasavi Theatre, Madhira, Telangana 507203, India",
    "City": "Madhira",
    "State": "Telangana",
    "RegionCode": "MADR",
    "SubRegionCode": "MADR",
    "Latitude": "16.926",
    "Longitude": "80.3652",
    "AvailableFormats": "2D"
  },
  "DTCN": {
    "VenueCode": "DTCN",
    "VenueName": "Dwaraka Cinemas 4k Dolby Atmos: Nuzvid",
    "VenueAddress": "Hanuman Junction Road, Usha Bala Nagar, Near State Bank Of India, Nuzvid, Andhra Pradesh 521201, India",
    "City": "Nuzvid",
    "State": "Andhra Pradesh",
    "RegionCode": "NZVD",
    "SubRegionCode": "NZVD",
    "Latitude": "16.7875",
    "Longitude": "80.8501",
    "AvailableFormats": "2D"
  },
  "STYN": {
    "VenueCode": "STYN",
    "VenueName": "Satyanarayana Theaters A/C 2K Dolby: Nuzvid",
    "VenueAddress": "NSP Colony, Near Vodafone Mini Store, Nuzvid, Andhra Pradesh 521201, India",
    "City": "Nuzvid",
    "State": "Andhra Pradesh",
    "RegionCode": "NZVD",
    "SubRegionCode": "NZVD",
    "Latitude": "16.7892",
    "Longitude": "80.8512",
    "AvailableFormats": "2D"
  },
  "SZVR": {
    "VenueCode": "SZVR",
    "VenueName": "Smart Moviz (VGS & SR Cinemas): Chitradurga",
    "VenueAddress": "Near Hotel Big Boss, Katha No 3630/3299/6739/5998/3040, 23rd Ward, 4th Block, GHR Compound, Opp SJMIT, Chitradurga, Karnataka 577501, India",
    "City": "Chitradurga",
    "State": "Karnataka",
    "RegionCode": "CHIT",
    "SubRegionCode": "CHIT",
    "Latitude": "14.2357",
    "Longitude": "76.3855",
    "AvailableFormats": "2D"
  },
  "SRKO": {
    "VenueCode": "SRKO",
    "VenueName": "SRK Chitra Mandir 4K Dolby Atmos: Payakaraopeta",
    "VenueAddress": "Main Road, Near Talupulamma Temple, Payakaraopeta, Andhra Pradesh 533401, India",
    "City": "Payakaraopeta",
    "State": "Andhra Pradesh",
    "RegionCode": "PATE",
    "SubRegionCode": "PATE",
    "Latitude": "17.3605",
    "Longitude": "82.5463",
    "AvailableFormats": "2D"
  },
  "JTGT": {
    "VenueCode": "JTGT",
    "VenueName": "Gautham Theatre: Payakaraopeta",
    "VenueAddress": "Tuni, Payakaraopeta Town Road, Near Panduranga Swamy Temple, Payakaraopeta, Andhra Pradesh 531126, India",
    "City": "Payakaraopeta",
    "State": "Andhra Pradesh",
    "RegionCode": "PATE",
    "SubRegionCode": "PATE",
    "Latitude": "17.3622",
    "Longitude": "82.5493",
    "AvailableFormats": "2D"
  },
  "SVFD": {
    "VenueCode": "SVFD",
    "VenueName": "SVFCinemas:Raj Sammilonee Anuradha Cinema Benacity",
    "VenueAddress": "Raj Sammilonee Mall, 5th Floor, Banachity, Nachan Road, P.O and P.S, Durgapur, West Bengal 713213, India",
    "City": "Durgapur",
    "State": "West Bengal",
    "RegionCode": "DURGA",
    "SubRegionCode": "DURGA",
    "Latitude": "23.5569",
    "Longitude": "87.2768",
    "AvailableFormats": "3D|2D"
  },
  "SISD": {
    "VenueCode": "SISD",
    "VenueName": "SSR Cinemas: City Centre, Durgapur",
    "VenueAddress": "Dreamplex Mall, City Center, Above Smart Bazar, Durgapur, West Bengal 713216, India",
    "City": "Durgapur",
    "State": "West Bengal",
    "RegionCode": "DURGA",
    "SubRegionCode": "DURGA",
    "Latitude": "23.5377",
    "Longitude": "87.298",
    "AvailableFormats": "2D|3D"
  },
  "ABDD": {
    "VenueCode": "ABDD",
    "VenueName": "Arti Cinemas, above Pantaloons: Benachity",
    "VenueAddress": "Fortune Plaza, 5th Floor, Ananda Gopal Mukherjee Sarani Road, Above Reliance Digital, Near Bhiringi Kali Mandir, Benachity, Durgapur, West Bengal 713213, India",
    "City": "Durgapur",
    "State": "West Bengal",
    "RegionCode": "DURGA",
    "SubRegionCode": "DURGA",
    "Latitude": "23.5563",
    "Longitude": "87.2745",
    "AvailableFormats": "2D|3D"
  },
  "DRCA": {
    "VenueCode": "DRCA",
    "VenueName": "Durgapur Cinema: Durgapur",
    "VenueAddress": "Nazrul Sarani, Doctor`s Colony, City Center, Near Srijani Auditorium, Durgapur, West Bengal 713216, India",
    "City": "Durgapur",
    "State": "West Bengal",
    "RegionCode": "DURGA",
    "SubRegionCode": "DURGA",
    "Latitude": "23.5376",
    "Longitude": "87.3015",
    "AvailableFormats": "2D"
  },
  "AVCS": {
    "VenueCode": "AVCS",
    "VenueName": "Abirami Vishal Cinemas 4K Laser: Vettaikaranpudur",
    "VenueAddress": "Sethumadai Road, Vettaikaranpudur, Pollachi, Tamil Nadu 642129, India",
    "City": "Pollachi",
    "State": "Tamil Nadu",
    "RegionCode": "POLL",
    "SubRegionCode": "POLL",
    "Latitude": "10.5644",
    "Longitude": "76.9216",
    "AvailableFormats": "2D"
  },
  "MVKH": {
    "VenueCode": "MVKH",
    "VenueName": "Murukalaya & Vishal Cinema 4K Dolby Atmos:Pollachi",
    "VenueAddress": "19/1, Market Road, Theppakulam St, Vinayagar Kovil, Pollachi, Tamil Nadu 642001, India",
    "City": "Pollachi",
    "State": "Tamil Nadu",
    "RegionCode": "POLL",
    "SubRegionCode": "POLL",
    "Latitude": "10.6558",
    "Longitude": "77.0055",
    "AvailableFormats": "2D"
  },
  "ACPR": {
    "VenueCode": "ACPR",
    "VenueName": "Archana Cineplex RGB Laser 4K 3D ATMOS: Payyanur",
    "VenueAddress": "No 4657, Kokkanissery Road, Payyanur, Kerala 670307, India",
    "City": "Payyanur",
    "State": "Kerala",
    "RegionCode": "PAYY",
    "SubRegionCode": "PAYY",
    "Latitude": "12.1084",
    "Longitude": "75.2125",
    "AvailableFormats": "2D"
  },
  "STIP": {
    "VenueCode": "STIP",
    "VenueName": "Shanthi Cinemas: Payyanur",
    "VenueAddress": "Edapally - Panvel Hihgway, Kanyakumari, Near Royal Enfield Service Yashna Auto Works, Payyanur, Kerala 670307, India",
    "City": "Payyanur",
    "State": "Kerala",
    "RegionCode": "PAYY",
    "SubRegionCode": "PAYY",
    "Latitude": "12.1082",
    "Longitude": "75.2233",
    "AvailableFormats": "2D"
  },
  "MTRA": {
    "VenueCode": "MTRA",
    "VenueName": "Sangamithra Theater A/C 2K Dolby: Mylavaram",
    "VenueAddress": "Badrachalam Road, Near Shriram City Union Finance, Mylavaram, Andhra Pradesh 521230, India",
    "City": "Mylavaram",
    "State": "Andhra Pradesh",
    "RegionCode": "MYLA",
    "SubRegionCode": "MYLA",
    "Latitude": "16.7576",
    "Longitude": "80.6416",
    "AvailableFormats": "2D"
  },
  "RMKH": {
    "VenueCode": "RMKH",
    "VenueName": "Sri Rama Krishna Theater: Nakrekal",
    "VenueAddress": "Main Road, Near HDFC Bank, Nakrekal, Telangana 508211, India",
    "City": "Nakrekal",
    "State": "Telangana",
    "RegionCode": "NKRL",
    "SubRegionCode": "NKRL",
    "Latitude": "17.166",
    "Longitude": "79.4256",
    "AvailableFormats": "2D"
  },
  "NKRL": {
    "VenueCode": "NKRL",
    "VenueName": "Sri Venkateswara Theatre 70MM AC: Nakrekal",
    "VenueAddress": "Vijayawada - Hyderabad Highway, Main Road, Nakrekal, Telangana 508211, India",
    "City": "Nakrekal",
    "State": "Telangana",
    "RegionCode": "NKRL",
    "SubRegionCode": "NKRL",
    "Latitude": "17.166",
    "Longitude": "79.4249",
    "AvailableFormats": "2D"
  },
  "PCWN": {
    "VenueCode": "PCWN",
    "VenueName": "Penta Cinemas: Pulpally",
    "VenueAddress": "Staff Quarters, Pulpally Mullenkolly, Near BSNL Exchange, Pulpally, Kerala 673579, India",
    "City": "Pulpally",
    "State": "Kerala",
    "RegionCode": "PULP",
    "SubRegionCode": "PULP",
    "Latitude": "11.7986",
    "Longitude": "76.1633",
    "AvailableFormats": "2D"
  },
  "BLMT": {
    "VenueCode": "BLMT",
    "VenueName": "Blue Moon Theatre: Pulpally",
    "VenueAddress": "Pulpally Mullenkolly, kerala, Near Town Church (Sacred Heart Church), Pulpally, Kerala 673579, India",
    "City": "Pulpally",
    "State": "Kerala",
    "RegionCode": "PULP",
    "SubRegionCode": "PULP",
    "Latitude": "11.7962",
    "Longitude": "76.1647",
    "AvailableFormats": "2D"
  },
  "GDPG": {
    "VenueCode": "GDPG",
    "VenueName": "Gold Cinema: Palghar",
    "VenueAddress": "Mahim Road Palghar, Old Ice factory, Near Sales Tax Office, Palghar, Maharashtra 401404, India",
    "City": "Palghar",
    "State": "Maharashtra",
    "RegionCode": "PALG",
    "SubRegionCode": "PALG",
    "Latitude": "19.6934",
    "Longitude": "72.7739",
    "AvailableFormats": "2D"
  },
  "SRMX": {
    "VenueCode": "SRMX",
    "VenueName": "Saraswati Multiplex: Jajpur Road",
    "VenueAddress": "Nahaka Bypass, Near Hotel Brahmani, Jajpur Road, Odisha 755019, India",
    "City": "Jajpur Road",
    "State": "Odisha",
    "RegionCode": "JAJP",
    "SubRegionCode": "JAJP",
    "Latitude": "20.9515",
    "Longitude": "86.1367",
    "AvailableFormats": "2D"
  },
  "JACP": {
    "VenueCode": "JACP",
    "VenueName": "Jagannath Cine Palace: Jajpur Road",
    "VenueAddress": "New Bus Stand, Bypass Road, Umapada, Jajpur Road, Odisha 755019, India",
    "City": "Jajpur Road",
    "State": "Odisha",
    "RegionCode": "JAJP",
    "SubRegionCode": "JAJP",
    "Latitude": "20.9459",
    "Longitude": "86.1311",
    "AvailableFormats": "2D"
  },
  "CPSH": {
    "VenueCode": "CPSH",
    "VenueName": "PJP Cinepolis: Jamshedpur",
    "VenueAddress": "P and M Hi-Tech City Centre Mall, Millenium Park, Bistupur, Outer Circle Road, Jamshedpur, Jharkhand 831001, India",
    "City": "Jamshedpur",
    "State": "Jharkhand",
    "RegionCode": "JMDP",
    "SubRegionCode": "JMDP",
    "Latitude": "22.785",
    "Longitude": "86.181",
    "AvailableFormats": "2D|3D"
  },
  "MCCD": {
    "VenueCode": "MCCD",
    "VenueName": "Miraj Cinemas: Golmuri, Chandra Pacific Mall",
    "VenueAddress": "Chandra Pacific Mall, 5th Floor, Katha No. 28, Plot no. 2911, Besides Akashdeep Plaza, Golmuri, East Singhbhum, Jamshedpur, Jharkhand 831003, India",
    "City": "Jamshedpur",
    "State": "Jharkhand",
    "RegionCode": "JMDP",
    "SubRegionCode": "JMDP",
    "Latitude": "22.7953",
    "Longitude": "86.2244",
    "AvailableFormats": "2D|3D"
  },
  "ECGH": {
    "VenueCode": "ECGH",
    "VenueName": "Eylex Cinemas: Jamshedpur",
    "VenueAddress": "Zone 1 Mall, 4th Floor Big Bazar Building, NH 33, Pardih, Dimna Road, Jamshedpur, Jharkhand 831012, India",
    "City": "Jamshedpur",
    "State": "Jharkhand",
    "RegionCode": "JMDP",
    "SubRegionCode": "JMDP",
    "Latitude": "22.8441",
    "Longitude": "86.2163",
    "AvailableFormats": "2D"
  },
  "MKCK": {
    "VenueCode": "MKCK",
    "VenueName": "Makkal Cinemas A/C: Aravakurichi",
    "VenueAddress": "Aravakurichi Main Road, Aravakurichi, Tamil Nadu, Aravakurichi, Tamil Nadu 639201, India",
    "City": "Aravakurichi",
    "State": "Tamil Nadu",
    "RegionCode": "ARAV",
    "SubRegionCode": "ARAV",
    "Latitude": "10.7803",
    "Longitude": "77.9122",
    "AvailableFormats": "2D"
  },
  "SRMM": {
    "VenueCode": "SRMM",
    "VenueName": "Shreeji Cineplex: Mandsaur",
    "VenueAddress": "Sarafa Bazar, SH 14, Near Ghanta Ghar, Mandsaur, Madhya Pradesh 458002, India",
    "City": "Mandsaur",
    "State": "Madhya Pradesh",
    "RegionCode": "MNDS",
    "SubRegionCode": "MNDS",
    "Latitude": "24.0624",
    "Longitude": "75.0707",
    "AvailableFormats": "2D"
  },
  "SKYR": {
    "VenueCode": "SKYR",
    "VenueName": "Sky Cineplex: Mandsaur",
    "VenueAddress": "3rd Floor, Tirupati Plaza, Station Road., Mandsaur, Madhya Pradesh 458002, India",
    "City": "Mandsaur",
    "State": "Madhya Pradesh",
    "RegionCode": "MNDS",
    "SubRegionCode": "MNDS",
    "Latitude": "24.0735",
    "Longitude": "75.0747",
    "AvailableFormats": "2D"
  },
  "PCKC": {
    "VenueCode": "PCKC",
    "VenueName": "Prime Cinemas: Kangra",
    "VenueAddress": "Dharamshala Palampur Road, Near Fortis Hospital, Kangra, Himachal Pradesh 176001, India",
    "City": "Kangra",
    "State": "Himachal Pradesh",
    "RegionCode": "KANG",
    "SubRegionCode": "KANG",
    "Latitude": "32.1162",
    "Longitude": "76.2826",
    "AvailableFormats": "2D"
  },
  "JCMA": {
    "VenueCode": "JCMA",
    "VenueName": "JCM Multiplex: Ambikapur",
    "VenueAddress": "Devigang Road, Near Mahamaya Chowk, Ambikapur, Chhattisgarh 497001, India",
    "City": "Ambikapur",
    "State": "Chhattisgarh",
    "RegionCode": "AMBI",
    "SubRegionCode": "AMBI",
    "Latitude": "23.1266",
    "Longitude": "83.1916",
    "AvailableFormats": "2D|3D"
  },
  "BSMP": {
    "VenueCode": "BSMP",
    "VenueName": "Basant Multiplex: Ambikapur",
    "VenueAddress": "Kharsia Road, Beside Hotel Grand Basant, NH 78, Ambikapur, Chhattisgarh 497001, India",
    "City": "Ambikapur",
    "State": "Chhattisgarh",
    "RegionCode": "AMBI",
    "SubRegionCode": "AMBI",
    "Latitude": "23.1147",
    "Longitude": "83.198",
    "AvailableFormats": "2D"
  },
  "VSPA": {
    "VenueCode": "VSPA",
    "VenueName": "Vasundhra City Plex: Ambikapur",
    "VenueAddress": "Vasundhra Complex, Ramnivas colony, Namnakala Manendragarh Road, Near - Shiv Temple, Ambikapur, Chhattisgarh 497001, India",
    "City": "Ambikapur",
    "State": "Chhattisgarh",
    "RegionCode": "AMBI",
    "SubRegionCode": "AMBI",
    "Latitude": "23.128",
    "Longitude": "83.1742",
    "AvailableFormats": "2D"
  },
  "DJYA": {
    "VenueCode": "DJYA",
    "VenueName": "Divyajyoti Multiplex 2 (Dolby Atmos): Angul",
    "VenueAddress": "Hatisalapada, National Highway 42, Angul, Odisha 759106, India",
    "City": "Angul",
    "State": "Odisha",
    "RegionCode": "ANGL",
    "SubRegionCode": "ANGL",
    "Latitude": "20.8326",
    "Longitude": "85.0889",
    "AvailableFormats": "2D"
  },
  "DIMP": {
    "VenueCode": "DIMP",
    "VenueName": "Divyajyoti Movieplex: Angul",
    "VenueAddress": "Hatisalapada, National Highway 42, Angul, Odisha 759106, India",
    "City": "Angul",
    "State": "Odisha",
    "RegionCode": "ANGL",
    "SubRegionCode": "ANGL",
    "Latitude": "20.8326",
    "Longitude": "85.0889",
    "AvailableFormats": "2D"
  },
  "FXDR": {
    "VenueCode": "FXDR",
    "VenueName": "Four Shows Cineplex Dolby Atmos: Razole",
    "VenueAddress": "4 Shows Road, LIC Office Backside, Razole, Andhra Pradesh 533242, India",
    "City": "Razole",
    "State": "Andhra Pradesh",
    "RegionCode": "RAZO",
    "SubRegionCode": "RAZO",
    "Latitude": "16.4775",
    "Longitude": "81.8433",
    "AvailableFormats": "2D"
  },
  "SSRC": {
    "VenueCode": "SSRC",
    "VenueName": "Sri Sai Rajeswari Complex Cine Hub: Proddatur",
    "VenueAddress": "Proddatur Bypass Road, Nadimpalli, Proddatur, Andhra Pradesh 516362, India",
    "City": "Proddatur",
    "State": "Andhra Pradesh",
    "RegionCode": "PROD",
    "SubRegionCode": "PROD",
    "Latitude": "14.7407",
    "Longitude": "78.5631",
    "AvailableFormats": "2D"
  },
  "STHP": {
    "VenueCode": "STHP",
    "VenueName": "Sudha Theater A/c UFO 2K Dolby: Proddatur",
    "VenueAddress": "9, Sivalayam Street, Ward 20, Srinivasa Nagar, Near Dyavaswarupi Church, Proddatur, Andhra Pradesh 516360, India",
    "City": "Proddatur",
    "State": "Andhra Pradesh",
    "RegionCode": "PROD",
    "SubRegionCode": "PROD",
    "Latitude": "14.7514",
    "Longitude": "78.5545",
    "AvailableFormats": "2D"
  },
  "CPPD": {
    "VenueCode": "CPPD",
    "VenueName": "Chand Picture Palace A/C DTS: Proddatur",
    "VenueAddress": "Srinivasa Nagar, Opposite Arabian Hotel, Near S.K.C.V.S High School, Proddatur, Andhra Pradesh 516360, India",
    "City": "Proddatur",
    "State": "Andhra Pradesh",
    "RegionCode": "PROD",
    "SubRegionCode": "PROD",
    "Latitude": "14.7472",
    "Longitude": "78.5579",
    "AvailableFormats": "2D"
  },
  "FCLK": {
    "VenueCode": "FCLK",
    "VenueName": "Fun Cinemas: Lakhimpur Kheri",
    "VenueAddress": "Maharaj Nagar, LRP Road, Fun Mall, Lakhimpur Kheri, Uttar Pradesh 262701, India",
    "City": "Lakhimpur Kheri",
    "State": "Uttar Pradesh",
    "RegionCode": "LKPK",
    "SubRegionCode": "LKPK",
    "Latitude": "27.9286",
    "Longitude": "80.7807",
    "AvailableFormats": "2D"
  },
  "SCPP": {
    "VenueCode": "SCPP",
    "VenueName": "Sreedevi Cine Palace: Manjeri",
    "VenueAddress": "Manjeri Kozhikode, Nelliparambu Road, Manjeri, Kerala 676121, India",
    "City": "Manjeri",
    "State": "Kerala",
    "RegionCode": "MAJR",
    "SubRegionCode": "MAJR",
    "Latitude": "11.1304",
    "Longitude": "76.115",
    "AvailableFormats": "2D"
  },
  "DCMJ": {
    "VenueCode": "DCMJ",
    "VenueName": "Devaki Cinemax: Manjeri",
    "VenueAddress": "Rajiv Gandhi Bypass, Karuvambram, Manjeri, Kerala 676121, India",
    "City": "Manjeri",
    "State": "Kerala",
    "RegionCode": "MAJR",
    "SubRegionCode": "MAJR",
    "Latitude": "11.1232",
    "Longitude": "76.1175",
    "AvailableFormats": "2D"
  },
  "RCCR": {
    "VenueCode": "RCCR",
    "VenueName": "Red Rocks: Cheeka",
    "VenueAddress": "Pehowa Road, Tau Devi Lal Park, Near FSD Cheeka, Food Corporation of India, Cheeka, Haryana 136034, India",
    "City": "Cheeka",
    "State": "Haryana",
    "RegionCode": "CHEK",
    "SubRegionCode": "CHEK",
    "Latitude": "30.0485",
    "Longitude": "76.336",
    "AvailableFormats": "2D"
  },
  "INMT": {
    "VenueCode": "INMT",
    "VenueName": "INOX: SRMT Mall, Kakinada",
    "VenueAddress": "3rd Floor, 82-EAST, SRMT Mall, Lalitha Nagar, Ramanayyapeta, Pithapuram Road, Sarpavaram Junction, Kakinada, Andhra Pradesh 533005, India",
    "City": "Kakinada",
    "State": "Andhra Pradesh",
    "RegionCode": "KAKI",
    "SubRegionCode": "KAKI",
    "Latitude": "16.9979",
    "Longitude": "82.2434",
    "AvailableFormats": "2D"
  },
  "LXTK": {
    "VenueCode": "LXTK",
    "VenueName": "Laxmi  A/C  Dts 2K: Kakinada",
    "VenueAddress": "D No. 42-1-11, Vallabhai Street, Cinema Road, Suryanarayana Puram, Kakinada, Andhra Pradesh 533001, India",
    "City": "Kakinada",
    "State": "Andhra Pradesh",
    "RegionCode": "KAKI",
    "SubRegionCode": "KAKI",
    "Latitude": "16.9442",
    "Longitude": "82.2361",
    "AvailableFormats": "2D"
  },
  "SRYK": {
    "VenueCode": "SRYK",
    "VenueName": "Surya Cinemax: Kakinada",
    "VenueAddress": "Old Surya Mahala Theatre, Vakalapudi, Kakinada, Andhra Pradesh 533005, India",
    "City": "Kakinada",
    "State": "Andhra Pradesh",
    "RegionCode": "KAKI",
    "SubRegionCode": "KAKI",
    "Latitude": "17.0029",
    "Longitude": "82.2623",
    "AvailableFormats": "2D"
  },
  "SGDK": {
    "VenueCode": "SGDK",
    "VenueName": "Satyagouri A/C 2K Digital Dolby Ex: Kakinada",
    "VenueAddress": "Cinema Road, Suryanarayana Puram, Kakinada, Andhra Pradesh 533001, India",
    "City": "Kakinada",
    "State": "Andhra Pradesh",
    "RegionCode": "KAKI",
    "SubRegionCode": "KAKI",
    "Latitude": "16.9457",
    "Longitude": "82.2366",
    "AvailableFormats": "2D"
  },
  "PPKA": {
    "VenueCode": "PPKA",
    "VenueName": "Padmapriya 2K Dolby Atmos: Kakinada",
    "VenueAddress": "Bhanugudi Junction, Kondayya Palem, Kakinada, Andhra Pradesh 533003, India",
    "City": "Kakinada",
    "State": "Andhra Pradesh",
    "RegionCode": "KAKI",
    "SubRegionCode": "KAKI",
    "Latitude": "16.9703",
    "Longitude": "82.2374",
    "AvailableFormats": "2D"
  },
  "SPKA": {
    "VenueCode": "SPKA",
    "VenueName": "Sripriya Dts 2K: Kakinada",
    "VenueAddress": "Bhanugudi Junction, Kondayya Palem, Kakinada, Andhra Pradesh 533003, India",
    "City": "Kakinada",
    "State": "Andhra Pradesh",
    "RegionCode": "KAKI",
    "SubRegionCode": "KAKI",
    "Latitude": "16.9703",
    "Longitude": "82.2374",
    "AvailableFormats": "3D"
  },
  "CGHH": {
    "VenueCode": "CGHH",
    "VenueName": "Chandra Guptha Complex Screen 2: Kakinada",
    "VenueAddress": "Cinema Hall Road, Surya Rao Peta, Opposite Municipal Office, Kakinada, Andhra Pradesh 533001, India",
    "City": "Kakinada",
    "State": "Andhra Pradesh",
    "RegionCode": "KAKI",
    "SubRegionCode": "KAKI",
    "Latitude": "16.9573",
    "Longitude": "82.2365",
    "AvailableFormats": "2D"
  },
  "DCJN": {
    "VenueCode": "DCJN",
    "VenueName": "Dhishoom Cinemas: Jhunjhunu",
    "VenueAddress": "2nd Floor, 109, MG Mall, Tall Road, Near Khemi Sati Bus Stand, Jhunjhunu, Rajasthan 333001, India",
    "City": "Jhunjhunu",
    "State": "Rajasthan",
    "RegionCode": "JHUN",
    "SubRegionCode": "JHUN",
    "Latitude": "28.128",
    "Longitude": "75.4101",
    "AvailableFormats": "2D"
  },
  "SRKV": {
    "VenueCode": "SRKV",
    "VenueName": "Shiva Rama krishna Theatre: Vemulawada",
    "VenueAddress": "Cinema Road, Near Rajarajeswari AC Lodge, Vemulawada, Telangana 505302, India",
    "City": "Vemulawada",
    "State": "Telangana",
    "RegionCode": "VERU",
    "SubRegionCode": "VERU",
    "Latitude": "18.4662",
    "Longitude": "78.8757",
    "AvailableFormats": "2D"
  },
  "SAJC": {
    "VenueCode": "SAJC",
    "VenueName": "Starworld Raj Palace Cinema: Robertsganj",
    "VenueAddress": "District-Sonbhadra, By-Pass Road, Robertsganj, Uttar Pradesh 231216, India",
    "City": "Robertsganj",
    "State": "Uttar Pradesh",
    "RegionCode": "ROBE",
    "SubRegionCode": "ROBE",
    "Latitude": "24.6896",
    "Longitude": "83.0609",
    "AvailableFormats": "2D"
  },
  "SUSR": {
    "VenueCode": "SUSR",
    "VenueName": "Surya Sree Theatre Dolby 7.1: Dharanikota",
    "VenueAddress": "Dharanikota, Surya Sri Theatre Road, Anaparthi, Andhra Pradesh 533342, India",
    "City": "Anaparthi",
    "State": "Andhra Pradesh",
    "RegionCode": "ANPT",
    "SubRegionCode": "ANPT",
    "Latitude": "16.9329",
    "Longitude": "81.958",
    "AvailableFormats": "2D"
  },
  "STYG": {
    "VenueCode": "STYG",
    "VenueName": "Sri Satya Gowri Theatre: Anaparthi",
    "VenueAddress": "Gandhi Nagar, Anaparthy - Lola Road, Anaparthi, Andhra Pradesh 533342, India",
    "City": "Anaparthi",
    "State": "Andhra Pradesh",
    "RegionCode": "ANPT",
    "SubRegionCode": "ANPT",
    "Latitude": "16.931",
    "Longitude": "81.9523",
    "AvailableFormats": "2D"
  },
  "NTKP": {
    "VenueCode": "NTKP",
    "VenueName": "Naveen Talkies: Kotpad",
    "VenueAddress": "Kundra - Kotpad - Jagdalpur Road, Naikera, Kotpad, Odisha 764058, India",
    "City": "Kotpad",
    "State": "Odisha",
    "RegionCode": "KTPD",
    "SubRegionCode": "KTPD",
    "Latitude": "19.1393",
    "Longitude": "82.3228",
    "AvailableFormats": "2D"
  },
  "AKTG": {
    "VenueCode": "AKTG",
    "VenueName": "Alka Talkies: Gadarwara",
    "VenueAddress": "Alka Talkies Road, Vijay Colony, Bhabha Ward, Gadarwara, Madhya Pradesh 487551, India",
    "City": "Gadarwara",
    "State": "Madhya Pradesh",
    "RegionCode": "GDWR",
    "SubRegionCode": "GDWR",
    "Latitude": "22.9202",
    "Longitude": "78.7821",
    "AvailableFormats": "2D"
  },
  "CGCM": {
    "VenueCode": "CGCM",
    "VenueName": "Chhotu Maharaj Cine Cafe: Gadarwara, MP",
    "VenueAddress": "Opposite Railway Station Platform 1, Toward of Ntpc road, Narsinghpur, Front off Kanch Mandir, Gadarwara, Madhya Pradesh 487551, India",
    "City": "Gadarwara",
    "State": "Madhya Pradesh",
    "RegionCode": "GDWR",
    "SubRegionCode": "GDWR",
    "Latitude": "22.8895",
    "Longitude": "78.7998",
    "AvailableFormats": "2D"
  },
  "TULC": {
    "VenueCode": "TULC",
    "VenueName": "Tulasi Cinemas: Thullur",
    "VenueAddress": "Collage Road, Opposite To Thulluru Lake, Thullur, Andhra Pradesh 522237, India",
    "City": "Thullur",
    "State": "Andhra Pradesh",
    "RegionCode": "THUL",
    "SubRegionCode": "THUL",
    "Latitude": "16.5267",
    "Longitude": "80.4696",
    "AvailableFormats": "2D"
  },
  "NYYZ": {
    "VenueCode": "NYYZ",
    "VenueName": "Narayana Theater: Hasanparthy",
    "VenueAddress": "Next to Naviiapps, Jagtial Road, Hasanparthy, Telangana 506371, India",
    "City": "Hasanparthy",
    "State": "Telangana",
    "RegionCode": "HASZ",
    "SubRegionCode": "HASZ",
    "Latitude": "18.0608",
    "Longitude": "79.5237",
    "AvailableFormats": "2D"
  },
  "NYBW": {
    "VenueCode": "NYBW",
    "VenueName": "NY Cinema Grand KB Mall: Banswara",
    "VenueAddress": "The Grand KB Mall, 3rd Floor, Plot 31B, Road No 5, RIICO Industrial Area, Thikariya, Banswara, Rajasthan 327001, India",
    "City": "Banswara",
    "State": "Rajasthan",
    "RegionCode": "BANS",
    "SubRegionCode": "BANS",
    "Latitude": "23.5279",
    "Longitude": "74.4269",
    "AvailableFormats": "2D"
  },
  "MACB": {
    "VenueCode": "MACB",
    "VenueName": "Mukta A2 Cinemas: Nakshatra Mall, Banswara",
    "VenueAddress": "3rd Floor, Nakshatra Mall, Udaipur Dungarpur Link Road, Banswara, Rajasthan 327001, India",
    "City": "Banswara",
    "State": "Rajasthan",
    "RegionCode": "BANS",
    "SubRegionCode": "BANS",
    "Latitude": "23.5537",
    "Longitude": "74.4264",
    "AvailableFormats": "2D|3D"
  },
  "SLVT": {
    "VenueCode": "SLVT",
    "VenueName": "SLV Theater: Yerragondapalem",
    "VenueAddress": "Nagarjuna Sagar - Srisailam Road, Near Makkah Masjid, Yerragondapalem, Andhra Pradesh 523327, India",
    "City": "Yerragondapalem",
    "State": "Andhra Pradesh",
    "RegionCode": "YERA",
    "SubRegionCode": "YERA",
    "Latitude": "16.0423",
    "Longitude": "79.3064",
    "AvailableFormats": "2D"
  },
  "SANA": {
    "VenueCode": "SANA",
    "VenueName": "Magic Frames Sahina Cinemas: Mattannur",
    "VenueAddress": "Iritty Rd, Mattannur,Kerala, Near Mattannur court, Mattannur, Kerala 670702, India",
    "City": "Mattannur",
    "State": "Kerala",
    "RegionCode": "MATT",
    "SubRegionCode": "MATT",
    "Latitude": "11.9314",
    "Longitude": "75.5812",
    "AvailableFormats": "2D"
  },
  "ACMR": {
    "VenueCode": "ACMR",
    "VenueName": "Aura Cinemas: Mattannur",
    "VenueAddress": "Indira Nagar, Mattannur,Kerala, Near Links Mall, Mattannur, Kerala 670702, India",
    "City": "Mattannur",
    "State": "Kerala",
    "RegionCode": "MATT",
    "SubRegionCode": "MATT",
    "Latitude": "11.9289",
    "Longitude": "75.5724",
    "AvailableFormats": "2D"
  },
  "CPKN": {
    "VenueCode": "CPKN",
    "VenueName": "City Pride: Katni",
    "VenueAddress": "3rd Floor, City Mall, Barhi Road, Gole Bazar, Katni, Madhya Pradesh 483501, India",
    "City": "Katni",
    "State": "Madhya Pradesh",
    "RegionCode": "KATN",
    "SubRegionCode": "KATN",
    "Latitude": "23.8373",
    "Longitude": "80.3997",
    "AvailableFormats": "2D"
  },
  "DLGK": {
    "VenueCode": "DLGK",
    "VenueName": "DLG Cinemas: Katni",
    "VenueAddress": "Relaince Petrol Pump, Shanti Nagar, Katni, Madhya Pradesh 483504, India",
    "City": "Katni",
    "State": "Madhya Pradesh",
    "RegionCode": "KATN",
    "SubRegionCode": "KATN",
    "Latitude": "23.8149",
    "Longitude": "80.3782",
    "AvailableFormats": "2D"
  },
  "CWCK": {
    "VenueCode": "CWCK",
    "VenueName": "Cine Worldz Cinema: Katni",
    "VenueAddress": "2nd floor, Mittal Mall, Beside Mittal Enclave, Collectorate Road, Katni, Madhya Pradesh 483501, India",
    "City": "Katni",
    "State": "Madhya Pradesh",
    "RegionCode": "KATN",
    "SubRegionCode": "KATN",
    "Latitude": "23.8007",
    "Longitude": "80.3674",
    "AvailableFormats": "2D"
  },
  "FDDH": {
    "VenueCode": "FDDH",
    "VenueName": "Fun DD Cinema: Etawah",
    "VenueAddress": "Ram Lila Road, Anand Nagar, Lalpura, Etawah, Uttar Pradesh 206001, India",
    "City": "Etawah",
    "State": "Uttar Pradesh",
    "RegionCode": "ETWH",
    "SubRegionCode": "ETWH",
    "Latitude": "26.7709",
    "Longitude": "79.0256",
    "AvailableFormats": "2D"
  },
  "MMMD": {
    "VenueCode": "MMMD",
    "VenueName": "Mad Moviez: Etawah",
    "VenueAddress": "Baba The Mall, Shastri Chauraha, Chogurjee Nagar, Near Hydel Colony, Etawah, Uttar Pradesh 206001, India",
    "City": "Etawah",
    "State": "Uttar Pradesh",
    "RegionCode": "ETWH",
    "SubRegionCode": "ETWH",
    "Latitude": "26.7847",
    "Longitude": "79.0212",
    "AvailableFormats": "2D"
  },
  "CMEH": {
    "VenueCode": "CMEH",
    "VenueName": "Chhotu Maharaj Cine Cafe:(HIDDEN CASTLE) ETAWAH,UP",
    "VenueAddress": "Hidden Castle The Mall, Sarai Bhopat, Old Agra Road, Etawah, Uttar Pradesh 206001, India",
    "City": "Etawah",
    "State": "Uttar Pradesh",
    "RegionCode": "ETWH",
    "SubRegionCode": "ETWH",
    "Latitude": "26.8178",
    "Longitude": "78.9669",
    "AvailableFormats": "2D"
  },
  "GGGV": {
    "VenueCode": "GGGV",
    "VenueName": "Genesis Gold Cinema: Karimganj",
    "VenueAddress": "Old Station Road, Next to CityLife Supermarket, Karimganj, Assam 788710, India",
    "City": "Karimganj",
    "State": "Assam",
    "RegionCode": "KRNJ",
    "SubRegionCode": "KRNJ",
    "Latitude": "24.8671",
    "Longitude": "92.3682",
    "AvailableFormats": "2D"
  },
  "SPJL": {
    "VenueCode": "SPJL",
    "VenueName": "SPJ Multiplex: Lakhanpur (CG)",
    "VenueAddress": "Junadih, Main Road, Lakhanpur, Chhattisgarh 497116, India",
    "City": "Lakhanpur",
    "State": "Chhattisgarh",
    "RegionCode": "ALKP",
    "SubRegionCode": "ALKP",
    "Latitude": "22.9747",
    "Longitude": "83.0398",
    "AvailableFormats": "2D"
  },
  "RCCD": {
    "VenueCode": "RCCD",
    "VenueName": "Ranga Cine Central: Dharmavaram",
    "VenueAddress": "Parthasaradhi Nagar, Dharmavaram - Puttaparthi Road, Opposite Bus Stand, Dharmavaram, Andhra Pradesh 515671, India",
    "City": "Dharmavaram",
    "State": "Andhra Pradesh",
    "RegionCode": "DDMA",
    "SubRegionCode": "DDMA",
    "Latitude": "14.409",
    "Longitude": "77.7161",
    "AvailableFormats": "2D"
  },
  "STTZ": {
    "VenueCode": "STTZ",
    "VenueName": "Siddhartha Theatre A/C Dts: Dharmavaram",
    "VenueAddress": "Gita Bhawan Road, Parthasaradhi Nagar, Dharmavaram, Andhra Pradesh 515671, India",
    "City": "Dharmavaram",
    "State": "Andhra Pradesh",
    "RegionCode": "DDMA",
    "SubRegionCode": "DDMA",
    "Latitude": "14.412",
    "Longitude": "77.7142",
    "AvailableFormats": "2D"
  },
  "BTCF": {
    "VenueCode": "BTCF",
    "VenueName": "Bharat DD Cinemas: Firozabad",
    "VenueAddress": "Bharat talkies, Asfabad, Firozabad, Uttar Pradesh 283203, India",
    "City": "Firozabad",
    "State": "Uttar Pradesh",
    "RegionCode": "FRZD",
    "SubRegionCode": "FRZD",
    "Latitude": "27.1361",
    "Longitude": "78.4235",
    "AvailableFormats": "2D"
  },
  "TSTZ": {
    "VenueCode": "TSTZ",
    "VenueName": "Titu Cinema: Balrampur",
    "VenueAddress": "NH 730, Above 1 India Family Mart, Pahalwara, Balrampur, Uttar Pradesh 271201, India",
    "City": "Balrampur",
    "State": "Uttar Pradesh",
    "RegionCode": "BLUR",
    "SubRegionCode": "BLUR",
    "Latitude": "27.4332",
    "Longitude": "82.1767",
    "AvailableFormats": "2D"
  },
  "IPMM": {
    "VenueCode": "IPMM",
    "VenueName": "IP Cinemas: IP Mughal Multiplex",
    "VenueAddress": "Second Floor, IP Mughal Multiplex, Chandauli District, GT Road, Mughalsarai, Uttar Pradesh 232101, India",
    "City": "Mughalsarai",
    "State": "Uttar Pradesh",
    "RegionCode": "MGSI",
    "SubRegionCode": "MGSI",
    "Latitude": "25.2937",
    "Longitude": "83.0992",
    "AvailableFormats": "2D"
  },
  "PMPW": {
    "VenueCode": "PMPW",
    "VenueName": "INOX Megaplex: Phoenix Mall of the Millennium",
    "VenueAddress": "3rd Floor, PUNE PMC,Phoenix mall of the Millennium, Banglore Highway, Wakad, Behind Sayaji Hotel Pune, Pune, Maharashtra 411057, India",
    "City": "Pune",
    "State": "Maharashtra",
    "RegionCode": "PUNE",
    "SubRegionCode": "PUNE",
    "Latitude": "18.6005",
    "Longitude": "73.7565",
    "AvailableFormats": "2D|3D|IMAX 2D"
  },
  "PCMZ": {
    "VenueCode": "PCMZ",
    "VenueName": "PVR: Phoenix Market City, Pune",
    "VenueAddress": "2nd Floor, Phoenix Market City, Nagar Road, Viman Nagar, Near Baker Gauges, Pune, Maharashtra 411014, India",
    "City": "Pune",
    "State": "Maharashtra",
    "RegionCode": "PUNE",
    "SubRegionCode": "PUNE",
    "Latitude": "18.5613",
    "Longitude": "73.917",
    "AvailableFormats": "2D|3D|4DX"
  },
  "ESEM": {
    "VenueCode": "ESEM",
    "VenueName": "E-SQUARE: Xion Mall, Hinjawadi",
    "VenueAddress": "1st Floor, XION Mall, Hinjawadi Road, Wakad, Pune, Maharashtra 411057, India",
    "City": "Pune",
    "State": "Maharashtra",
    "RegionCode": "PUNE",
    "SubRegionCode": "PUNE",
    "Latitude": "18.5927",
    "Longitude": "73.7453",
    "AvailableFormats": "2D|3D"
  },
  "PIPO": {
    "VenueCode": "PIPO",
    "VenueName": "PVR: Icon, The Pavillion Pune",
    "VenueAddress": "Pavillion Mall, 3rd Floor, Senapati Bapat Road No.30, Laxmi Society, Model Colony, Shivajinagar, Pune, Maharashtra 411016, India",
    "City": "Pune",
    "State": "Maharashtra",
    "RegionCode": "PUNE",
    "SubRegionCode": "PUNE",
    "Latitude": "18.5339",
    "Longitude": "73.83",
    "AvailableFormats": "2D|3D"
  },
  "MATK": {
    "VenueCode": "MATK",
    "VenueName": "MovieMax: Amanora Town Centre, Pune(Now Renovated)",
    "VenueAddress": "MovieMax, Amanora Town Centre, Amanora Park Town, Hadapsar, Pune, Maharashtra 411028, India",
    "City": "Pune",
    "State": "Maharashtra",
    "RegionCode": "PUNE",
    "SubRegionCode": "PUNE",
    "Latitude": "18.5189",
    "Longitude": "73.9357",
    "AvailableFormats": "2D|3D"
  },
  "PGHM": {
    "VenueCode": "PGHM",
    "VenueName": "PVR: Grand Highstreet Mall, Hinjawadi",
    "VenueAddress": "Grand Highstreet Mall, 2nd Floor, Taluka Mulshi , Village Hinjewadi, Pune, Maharashtra 411057, India",
    "City": "Pune",
    "State": "Maharashtra",
    "RegionCode": "PUNE",
    "SubRegionCode": "PUNE",
    "Latitude": "18.5943",
    "Longitude": "73.7253",
    "AvailableFormats": "2D|3D"
  },
  "CTSR": {
    "VenueCode": "CTSR",
    "VenueName": "City Pride: Satara Road",
    "VenueAddress": "Market Yard, Pune Satara Road, Pune, Maharashtra 411037, India",
    "City": "Pune",
    "State": "Maharashtra",
    "RegionCode": "PUNE",
    "SubRegionCode": "PUNE",
    "Latitude": "18.4887",
    "Longitude": "73.8579",
    "AvailableFormats": "2D|3D"
  },
  "CYKR": {
    "VenueCode": "CYKR",
    "VenueName": "City Pride: Kharadi",
    "VenueAddress": "Nyati Plaza, Thite Nagar, Kharadi, Pune, Maharashtra 411014, India",
    "City": "Pune",
    "State": "Maharashtra",
    "RegionCode": "PUNE",
    "SubRegionCode": "PUNE",
    "Latitude": "18.5502",
    "Longitude": "73.9379",
    "AvailableFormats": "2D|DOLBY CINEMA 2D|3D"
  },
  "MSCM": {
    "VenueCode": "MSCM",
    "VenueName": "Miraj Cinemas: Spine City Mall, Pune",
    "VenueAddress": "Sector No. 9, Sant Nagar, Spine Road, Pune, Maharashtra 412105, India",
    "City": "Pune",
    "State": "Maharashtra",
    "RegionCode": "PUNE",
    "SubRegionCode": "PUNE",
    "Latitude": "18.6504",
    "Longitude": "73.8393",
    "AvailableFormats": "2D|3D"
  },
  "RFNP": {
    "VenueCode": "RFNP",
    "VenueName": "Rajhans Cinemas: 93 Avenue Mall,Fatima Nagar, Pune",
    "VenueAddress": "93 Avenue, Kalubhai Chawk, Fatima Nagar Junction, Wanoworie, Pune, Maharashtra 411022, India",
    "City": "Pune",
    "State": "Maharashtra",
    "RegionCode": "PUNE",
    "SubRegionCode": "PUNE",
    "Latitude": "18.5057",
    "Longitude": "73.9064",
    "AvailableFormats": "2D"
  },
  "PDCP": {
    "VenueCode": "PDCP",
    "VenueName": "PVR: Directors Cut, KOPA, Pune",
    "VenueAddress": "KOPA Mall,37 H.No.3 Plus 4/2, Ghorpadi, Mundhwa Road, Pune, Maharashtra 411001, India",
    "City": "Pune",
    "State": "Maharashtra",
    "RegionCode": "PUNE",
    "SubRegionCode": "PUNE",
    "Latitude": "18.538",
    "Longitude": "73.9079",
    "AvailableFormats": "2D|3D|ICE|ICE 3D"
  },
  "NPSE": {
    "VenueCode": "NPSE",
    "VenueName": "E-SQUARE: University Road, Pune (Newly Renovated)",
    "VenueAddress": "East Square Flyover, Premnagar, Ashok Nagar, Pune, Maharashtra 411016, India",
    "City": "Pune",
    "State": "Maharashtra",
    "RegionCode": "PUNE",
    "SubRegionCode": "PUNE",
    "Latitude": "18.538",
    "Longitude": "73.8356",
    "AvailableFormats": "2D|3D"
  },
  "MKML": {
    "VenueCode": "MKML",
    "VenueName": "MovieMax Gold: Mariplex Mall, Kalyani Nagar",
    "VenueAddress": "Marigold Complex, Kalyani Nagar, Pune, Maharashtra 411006, India",
    "City": "Pune",
    "State": "Maharashtra",
    "RegionCode": "PUNE",
    "SubRegionCode": "PUNE",
    "Latitude": "18.5437",
    "Longitude": "73.9088",
    "AvailableFormats": "2D"
  },
  "FTDP": {
    "VenueCode": "FTDP",
    "VenueName": "Funtime Deluxe: Pimpri, Pune",
    "VenueAddress": "Deluxe Fortune Mall, Shastri Nagar, Pimpri Colony, Pimpri-Chinchwad, Pune, Maharashtra 411017, India",
    "City": "Pune",
    "State": "Maharashtra",
    "RegionCode": "PUNE",
    "SubRegionCode": "PUNE",
    "Latitude": "18.6199",
    "Longitude": "73.8012",
    "AvailableFormats": "2D"
  },
  "MMXA": {
    "VenueCode": "MMXA",
    "VenueName": "MovieMax Edition (Luxe): Amanora Town Center, Pune",
    "VenueAddress": "MovieMax, Amanora Town Centre, Amanora Park Town, Hadapsar, Pune, Maharashtra 411028, India",
    "City": "Pune",
    "State": "Maharashtra",
    "RegionCode": "PUNE",
    "SubRegionCode": "PUNE",
    "Latitude": "18.5189",
    "Longitude": "73.9357",
    "AvailableFormats": "3D|2D"
  },
  "CEPO": {
    "VenueCode": "CEPO",
    "VenueName": "CinePRO: Vasant Cinema, Pune",
    "VenueAddress": "Near Nana Wada, Chhatrapati Shivaji Maharaj Road, Budhwar Peth, Pune, Maharashtra 411002, India",
    "City": "Pune",
    "State": "Maharashtra",
    "RegionCode": "PUNE",
    "SubRegionCode": "PUNE",
    "Latitude": "18.518",
    "Longitude": "73.8561",
    "AvailableFormats": "2D"
  },
  "CMVP": {
    "VenueCode": "CMVP",
    "VenueName": "Chhotu Maharaj Cine Cafe, Vasuli Phata: Pune",
    "VenueAddress": "Ground, Plot No.PAP-V-74, Vasuli, Chakan MIDC, Phase 2, Khed, Pune, Maharashtra 410501, India",
    "City": "Pune",
    "State": "Maharashtra",
    "RegionCode": "PUNE",
    "SubRegionCode": "PUNE",
    "Latitude": "18.7887",
    "Longitude": "73.7717",
    "AvailableFormats": "2D"
  },
  "SGTH": {
    "VenueCode": "SGTH",
    "VenueName": "Sri Guru Theatre: Hassan",
    "VenueAddress": "Krishnaraja Pura, BM Road, Hassan, Karnataka 573201, India",
    "City": "Hassan",
    "State": "Karnataka",
    "RegionCode": "HASN",
    "SubRegionCode": "HASN",
    "Latitude": "13.002",
    "Longitude": "76.1092",
    "AvailableFormats": "3D|2D"
  },
  "SAYN": {
    "VenueCode": "SAYN",
    "VenueName": "Sahyadri Theatre: Hassan",
    "VenueAddress": "Penshan Mohalla, Near Karnataka Bank ATM, Hassan, Karnataka 573201, India",
    "City": "Hassan",
    "State": "Karnataka",
    "RegionCode": "HASN",
    "SubRegionCode": "HASN",
    "Latitude": "13.0095",
    "Longitude": "76.0985",
    "AvailableFormats": "2D"
  },
  "URVS": {
    "VenueCode": "URVS",
    "VenueName": "Asian Urvasi 70MM: Godavarikhani",
    "VenueAddress": "Kalyan Nagar, Ramagundam, Near S.V Function Hall, Godavarikhani, Telangana 505211, India",
    "City": "Godavarikhani",
    "State": "Telangana",
    "RegionCode": "GDVK",
    "SubRegionCode": "GDVK",
    "Latitude": "18.7464",
    "Longitude": "79.5096",
    "AvailableFormats": "2D"
  },
  "VJTN": {
    "VenueCode": "VJTN",
    "VenueName": "Vijaya Theater: Nandigama",
    "VenueAddress": "CM Road, Near Ravuri Complex, Nandigama, Andhra Pradesh 521185, India",
    "City": "Nandigama",
    "State": "Andhra Pradesh",
    "RegionCode": "NDGM",
    "SubRegionCode": "NDGM",
    "Latitude": "16.769",
    "Longitude": "80.2869",
    "AvailableFormats": "2D"
  },
  "BBYK": {
    "VenueCode": "BBYK",
    "VenueName": "Baby Cinemas: Kuthuparamba",
    "VenueAddress": "Chovva Bypass Road, Kuthuparamba, Kuthuparamba, Kerala 670643, India",
    "City": "Kuthuparamba",
    "State": "Kerala",
    "RegionCode": "KUTH",
    "SubRegionCode": "KUTH",
    "Latitude": "11.8299",
    "Longitude": "75.5639",
    "AvailableFormats": "2D"
  },
  "SHBO": {
    "VenueCode": "SHBO",
    "VenueName": "Shiva Bollywood Theatre: Baloda Bazar",
    "VenueAddress": "Purani Basti Bus Stand, Near Government High School, Baloda Bazar, Chhattisgarh 493332, India",
    "City": "Baloda Bazar",
    "State": "Chhattisgarh",
    "RegionCode": "BBCH",
    "SubRegionCode": "BBCH",
    "Latitude": "21.6594",
    "Longitude": "82.158",
    "AvailableFormats": "2D"
  },
  "VCMR": {
    "VenueCode": "VCMR",
    "VenueName": "PVR: Varam Central, Machilipatnam",
    "VenueAddress": "1st Floor, VARAM CENTRAL, Jaldu Avenue, Machavaram, Machilipatnam, Andhra Pradesh 521002, India",
    "City": "Machilipatnam",
    "State": "Andhra Pradesh",
    "RegionCode": "MAPM",
    "SubRegionCode": "MAPM",
    "Latitude": "16.1972",
    "Longitude": "81.1386",
    "AvailableFormats": "2D"
  },
  "MACT": {
    "VenueCode": "MACT",
    "VenueName": "Siri Complex: Machilipatnam",
    "VenueAddress": "NH 214A, Srinivas Nagar Colony, Krishna District, Machilipatnam, Andhra Pradesh 521001, India",
    "City": "Machilipatnam",
    "State": "Andhra Pradesh",
    "RegionCode": "MAPM",
    "SubRegionCode": "MAPM",
    "Latitude": "16.1836",
    "Longitude": "81.1324",
    "AvailableFormats": "2D"
  },
  "JMNP": {
    "VenueCode": "JMNP",
    "VenueName": "Jamuna Complex: Podalakur",
    "VenueAddress": "Kanigiri - Tirupathi Road, Near Vani Nursing Home, Podalakur, Andhra Pradesh 524409, India",
    "City": "Podalakur",
    "State": "Andhra Pradesh",
    "RegionCode": "PODA",
    "SubRegionCode": "PODA",
    "Latitude": "14.3866",
    "Longitude": "79.7334",
    "AvailableFormats": "2D"
  },
  "VICS": {
    "VenueCode": "VICS",
    "VenueName": "Vetri Cinemas (Maattuthavani) Dolby Atmos: Madurai",
    "VenueAddress": "173/1-B Industrial Estate, Melur Main Road, Near Mattuthavani Bus Stand, Madurai, Tamil Nadu 625007, India",
    "City": "Madurai",
    "State": "Tamil Nadu",
    "RegionCode": "MADU",
    "SubRegionCode": "MADU",
    "Latitude": "9.94505",
    "Longitude": "78.1551",
    "AvailableFormats": "2D"
  },
  "VCDA": {
    "VenueCode": "VCDA",
    "VenueName": "Vetri Cinemas (Villapuram) Dolby Atmos: Madurai",
    "VenueAddress": "249, Vetri Cinemas, Aruppukottai Main Road, Villapuram, Madurai, Tamil Nadu 625012, India",
    "City": "Madurai",
    "State": "Tamil Nadu",
    "RegionCode": "MADU",
    "SubRegionCode": "MADU",
    "Latitude": "9.90039",
    "Longitude": "78.12",
    "AvailableFormats": "2D"
  },
  "GCMM": {
    "VenueCode": "GCMM",
    "VenueName": "Gopuram Cinemas ATMOS and Laser Projector: Madurai",
    "VenueAddress": "50 Feet Road, Sellur, Madurai, Tamil Nadu 625002, India",
    "City": "Madurai",
    "State": "Tamil Nadu",
    "RegionCode": "MADU",
    "SubRegionCode": "MADU",
    "Latitude": "9.93746",
    "Longitude": "78.1219",
    "AvailableFormats": "2D"
  },
  "INVS": {
    "VenueCode": "INVS",
    "VenueName": "INOX: Vishaal De Mall",
    "VenueAddress": "No. 31, 5th Floor, Vishaal De Mall, Gokhale Road, Chinna Chokkikulam, Madurai, Tamil Nadu 625002, India",
    "City": "Madurai",
    "State": "Tamil Nadu",
    "RegionCode": "MADU",
    "SubRegionCode": "MADU",
    "Latitude": "9.93825",
    "Longitude": "78.136",
    "AvailableFormats": "2D"
  },
  "SCGM": {
    "VenueCode": "SCGM",
    "VenueName": "Ganesh theatre A/C Sony 4K 3D Dolby 7.1: Madurai",
    "VenueAddress": "No. 38, Kuruvi Karan Salai, Kamarajar Salai, Near Raghavendra Hospital, Madurai, Tamil Nadu 625009, India",
    "City": "Madurai",
    "State": "Tamil Nadu",
    "RegionCode": "MADU",
    "SubRegionCode": "MADU",
    "Latitude": "9.9156",
    "Longitude": "78.1403",
    "AvailableFormats": "2D"
  },
  "PCDA": {
    "VenueCode": "PCDA",
    "VenueName": "Priya Complex Dolby Atmos: Madurai",
    "VenueAddress": "Gandhi Nagar, Shenoy Nagar, 100 Feet Road, Anna Nagar, Opposite State Bank of India, Madurai, Tamil Nadu 625020, India",
    "City": "Madurai",
    "State": "Tamil Nadu",
    "RegionCode": "MADU",
    "SubRegionCode": "MADU",
    "Latitude": "9.92406",
    "Longitude": "78.1407",
    "AvailableFormats": "2D"
  },
  "KDCT": {
    "VenueCode": "KDCT",
    "VenueName": "Kannan Devi Cinemas, Tirunagar: Madurai",
    "VenueAddress": "Sannathi Street,12/1, Pandiyan Nagar, Madurai, Tamil Nadu 625005, India",
    "City": "Madurai",
    "State": "Tamil Nadu",
    "RegionCode": "MADU",
    "SubRegionCode": "MADU",
    "Latitude": "9.88219",
    "Longitude": "78.0614",
    "AvailableFormats": "2D"
  },
  "JACS": {
    "VenueCode": "JACS",
    "VenueName": "Jazz And Arsh Cinemas A/C Sony 4K: Madurai",
    "VenueAddress": "5, 80 Feet Road, Deputy Collector Colony, k.k.Nagar, Madurai, Tamil Nadu 625020, India",
    "City": "Madurai",
    "State": "Tamil Nadu",
    "RegionCode": "MADU",
    "SubRegionCode": "MADU",
    "Latitude": "9.92872",
    "Longitude": "78.1488",
    "AvailableFormats": "2D"
  },
  "GMMC": {
    "VenueCode": "GMMC",
    "VenueName": "Ganesh Cinemas (Melur) 4K RGB Laser & Dolby Atmos",
    "VenueAddress": "584, Trichy - Madurai Highway, Melur, Madurai, Tamil Nadu 625106, India",
    "City": "Madurai",
    "State": "Tamil Nadu",
    "RegionCode": "MADU",
    "SubRegionCode": "MADU",
    "Latitude": "10.0308",
    "Longitude": "78.3397",
    "AvailableFormats": "2D"
  },
  "AICM": {
    "VenueCode": "AICM",
    "VenueName": "Annamalai Cinemas A/C 4K: Madurai",
    "VenueAddress": "Thirumalairayar Padithurai Road, Simmakkal, Madurai Main, Near Sivan Temple, Madurai, Tamil Nadu 625001, India",
    "City": "Madurai",
    "State": "Tamil Nadu",
    "RegionCode": "MADU",
    "SubRegionCode": "MADU",
    "Latitude": "9.92601",
    "Longitude": "78.121",
    "AvailableFormats": "2D"
  },
  "TJCM": {
    "VenueCode": "TJCM",
    "VenueName": "Tamil Jaya Cinemas SONY 4K Dolby Digital: Madurai",
    "VenueAddress": "No 12, Near Pandiyan Hotel, Natham Road, Narimedu, Near Natham - Madurai Road, Madurai, Tamil Nadu 625002, India",
    "City": "Madurai",
    "State": "Tamil Nadu",
    "RegionCode": "MADU",
    "SubRegionCode": "MADU",
    "Latitude": "9.93944",
    "Longitude": "78.1366",
    "AvailableFormats": "2D"
  },
  "RMTI": {
    "VenueCode": "RMTI",
    "VenueName": "Ram Theatre: Madurai",
    "VenueAddress": "Balarengapuram, GG Road, Near Madurai Corporation Kamarajapuram Market, Madurai, Tamil Nadu 625009, India",
    "City": "Madurai",
    "State": "Tamil Nadu",
    "RegionCode": "MADU",
    "SubRegionCode": "MADU",
    "Latitude": "9.91158",
    "Longitude": "78.132",
    "AvailableFormats": "2D"
  },
  "SHAC": {
    "VenueCode": "SHAC",
    "VenueName": "Shanmuga Cine Complex A/C 7.1: Madurai",
    "VenueAddress": "205/1, Palanganatham Bypass Road, Near Kalavasal Junction, Madurai, Tamil Nadu 625016, India",
    "City": "Madurai",
    "State": "Tamil Nadu",
    "RegionCode": "MADU",
    "SubRegionCode": "MADU",
    "Latitude": "9.93094",
    "Longitude": "78.0956",
    "AvailableFormats": "2D"
  },
  "APJC": {
    "VenueCode": "APJC",
    "VenueName": "APR Cinemas Jeyam AC Christie 4K Dolby: Madurai",
    "VenueAddress": "No. 6 Kambar street, Pasumpon Nagar, Madurai, Tamil Nadu 625003, India",
    "City": "Madurai",
    "State": "Tamil Nadu",
    "RegionCode": "MADU",
    "SubRegionCode": "MADU",
    "Latitude": "9.90666",
    "Longitude": "78.0975",
    "AvailableFormats": "2D"
  },
  "GCTG": {
    "VenueCode": "GCTG",
    "VenueName": "Guru Cinemas A/C RGB Laser 4K 3D: Madurai",
    "VenueAddress": "66/98, Velar Street, Manjalmattu Colony, Gnanavolivupuram, Arapalayam, City Bus Stop, Madurai, Tamil Nadu 625016, India",
    "City": "Madurai",
    "State": "Tamil Nadu",
    "RegionCode": "MADU",
    "SubRegionCode": "MADU",
    "Latitude": "9.9361",
    "Longitude": "78.0979",
    "AvailableFormats": "2D"
  },
  "SSMC": {
    "VenueCode": "SSMC",
    "VenueName": "Solamalai Cinemas A/C Sony 4K: Madurai",
    "VenueAddress": "Travelers Bunglow Rd,North Gate, Thomas Colony, Mahapupalayam,Madurai, Near Railway Ground, Madurai, Tamil Nadu 625062, India",
    "City": "Madurai",
    "State": "Tamil Nadu",
    "RegionCode": "MADU",
    "SubRegionCode": "MADU",
    "Latitude": "9.9264",
    "Longitude": "78.0997",
    "AvailableFormats": "2D"
  },
  "THRM": {
    "VenueCode": "THRM",
    "VenueName": "Thanga Regal Cinema DOLBY ATMOS LASER: Madurai",
    "VenueAddress": "The Victoria Edward Hall, Southern Railway Colony, Madurai, Tamil Nadu 625001, India",
    "City": "Madurai",
    "State": "Tamil Nadu",
    "RegionCode": "MADU",
    "SubRegionCode": "MADU",
    "Latitude": "9.91798",
    "Longitude": "78.1113",
    "AvailableFormats": "2D"
  },
  "RBCT": {
    "VenueCode": "RBCT",
    "VenueName": "Ritzy Banu Cinemas A/C 4K: Thirumangalam",
    "VenueAddress": "Munchief Court Raod, Tirumangalam, Near Sri Kannaparan Temple, Madurai, Tamil Nadu 625706, India",
    "City": "Madurai",
    "State": "Tamil Nadu",
    "RegionCode": "MADU",
    "SubRegionCode": "MADU",
    "Latitude": "9.82637",
    "Longitude": "77.9814",
    "AvailableFormats": "2D"
  },
  "DIKT": {
    "VenueCode": "DIKT",
    "VenueName": "Dhevi Kalaivani Theatre A/C DTS: Madurai",
    "VenueAddress": "National Highway 7, Thirunagar, Thanakkankulam, Near LIC of India, Branch Office, Madurai, Tamil Nadu 625006, India",
    "City": "Madurai",
    "State": "Tamil Nadu",
    "RegionCode": "MADU",
    "SubRegionCode": "MADU",
    "Latitude": "9.88169",
    "Longitude": "78.0556",
    "AvailableFormats": "2D"
  },
  "MIDL": {
    "VenueCode": "MIDL",
    "VenueName": "Midlaand Cinemas A/C 4K Dolby Digital 7.1: Madurai",
    "VenueAddress": "116/2, Sammattipuram Main Road, Opposite to Big Bazaar, Madurai, Tamil Nadu 625016, India",
    "City": "Madurai",
    "State": "Tamil Nadu",
    "RegionCode": "MADU",
    "SubRegionCode": "MADU",
    "Latitude": "9.93085",
    "Longitude": "78.0907",
    "AvailableFormats": "2D"
  },
  "VCSN": {
    "VenueCode": "VCSN",
    "VenueName": "V Cinemas A/C 2K 3D: Sholavanthan",
    "VenueAddress": "Mullippallam, Sholavandhan, Near Sri Moolanadha Swamy Temple, Madurai, Tamil Nadu 625214, India",
    "City": "Madurai",
    "State": "Tamil Nadu",
    "RegionCode": "MADU",
    "SubRegionCode": "MADU",
    "Latitude": "10.0205",
    "Longitude": "77.9523",
    "AvailableFormats": "2D"
  },
  "SKTG": {
    "VenueCode": "SKTG",
    "VenueName": "Sakthi Cinemas Barco Laser Dolby Atmos: Madurai",
    "VenueAddress": "Naicker New Street, Simakkal, Madurai, Near Sethupathy School, Madurai, Tamil Nadu 625001, India",
    "City": "Madurai",
    "State": "Tamil Nadu",
    "RegionCode": "MADU",
    "SubRegionCode": "MADU",
    "Latitude": "9.92391",
    "Longitude": "78.1158",
    "AvailableFormats": "2D"
  },
  "SMWC": {
    "VenueCode": "SMWC",
    "VenueName": "Muneeswarar Cinema A/C Barco19B 4K 3D:Alanganallur",
    "VenueAddress": "Alanganallur Road, Sembukudipatti, Near Om Sakthi Temple, Madurai, Tamil Nadu 625501, India",
    "City": "Madurai",
    "State": "Tamil Nadu",
    "RegionCode": "MADU",
    "SubRegionCode": "MADU",
    "Latitude": "10.0457",
    "Longitude": "78.0787",
    "AvailableFormats": "2D"
  },
  "MNKH": {
    "VenueCode": "MNKH",
    "VenueName": "Meenakshi theatre A/C 7.1 Surround: Thirumangalam",
    "VenueAddress": "26, Virudhunagar Road, Madurai, Tamil Nadu 625706, India",
    "City": "Madurai",
    "State": "Tamil Nadu",
    "RegionCode": "MADU",
    "SubRegionCode": "MADU",
    "Latitude": "9.82126",
    "Longitude": "77.9865",
    "AvailableFormats": "2D"
  },
  "PIAT": {
    "VenueCode": "PIAT",
    "VenueName": "Palani Arumuga Cinema A/C Laser Projector: Madurai",
    "VenueAddress": "Anuppanadi Road, Madurai, Near ICICI Bank, Madurai, Tamil Nadu 625009, India",
    "City": "Madurai",
    "State": "Tamil Nadu",
    "RegionCode": "MADU",
    "SubRegionCode": "MADU",
    "Latitude": "9.9075",
    "Longitude": "78.1395",
    "AvailableFormats": "2D"
  },
  "LTTP": {
    "VenueCode": "LTTP",
    "VenueName": "Sri Lakshmi Theatre: Thirupparankundram",
    "VenueAddress": "Thirupparankundram Road, Avaniyapuram, Near Kasi Viswanathar Temple, Madurai, Tamil Nadu 625005, India",
    "City": "Madurai",
    "State": "Tamil Nadu",
    "RegionCode": "MADU",
    "SubRegionCode": "MADU",
    "Latitude": "9.87549",
    "Longitude": "78.0653",
    "AvailableFormats": "2D"
  },
  "PTPU": {
    "VenueCode": "PTPU",
    "VenueName": "Pathrakaliamman Theatre: Palamedu",
    "VenueAddress": "8-29/1, Palamedu, Madurai, Tamil Nadu 625503, India",
    "City": "Madurai",
    "State": "Tamil Nadu",
    "RegionCode": "MADU",
    "SubRegionCode": "MADU",
    "Latitude": "10.1074",
    "Longitude": "78.1116",
    "AvailableFormats": "2D"
  },
  "ACMG": {
    "VenueCode": "ACMG",
    "VenueName": "Anant Cineplex: Maharajganj",
    "VenueAddress": "Plot No 188, Mahuawa, NPP Maharajganj, Maharajganj, Uttar Pradesh 273303, India",
    "City": "Maharajganj",
    "State": "Uttar Pradesh",
    "RegionCode": "RAJG",
    "SubRegionCode": "RAJG",
    "Latitude": "27.1334",
    "Longitude": "83.5203",
    "AvailableFormats": "2D"
  },
  "SHMM": {
    "VenueCode": "SHMM",
    "VenueName": "Sandesh Multiplex, Malegaon: Maharashtra",
    "VenueAddress": "Old Sandesh Multiplex,Survey-312, Sangmeshwara Camp, Sangmeshwara Road, Near Vaidya Hospital, Malegaon, Maharashtra 423203, India",
    "City": "Malegaon",
    "State": "Maharashtra",
    "RegionCode": "MALE",
    "SubRegionCode": "MALE",
    "Latitude": "20.5563",
    "Longitude": "74.5216",
    "AvailableFormats": "2D"
  },
  "MCMN": {
    "VenueCode": "MCMN",
    "VenueName": "Mohan Cinema: Malegaon",
    "VenueAddress": "Shreeram Nagar Road, Vardhaman Nagar, Malegaon, Maharashtra 423105, India",
    "City": "Malegaon",
    "State": "Maharashtra",
    "RegionCode": "MALE",
    "SubRegionCode": "MALE",
    "Latitude": "20.557",
    "Longitude": "74.5256",
    "AvailableFormats": "2D"
  },
  "GLDC": {
    "VenueCode": "GLDC",
    "VenueName": "Gold Cinema: Chaygaon",
    "VenueAddress": "Goalpara - Guwahati Road, Near Bank Of Baroda, Chaygaon, Assam 781124, India",
    "City": "Chaygaon",
    "State": "Assam",
    "RegionCode": "CHOG",
    "SubRegionCode": "CHOG",
    "Latitude": "26.0476",
    "Longitude": "91.3844",
    "AvailableFormats": "2D"
  },
  "HOUT": {
    "VenueCode": "HOUT",
    "VenueName": "Houseful Talkies: Moranhat",
    "VenueAddress": "Peoli Nagar, AT Road, Near State Bank Of India, Moranhat, Assam 785670, India",
    "City": "Moranhat",
    "State": "Assam",
    "RegionCode": "MORH",
    "SubRegionCode": "MORH",
    "Latitude": "27.1869",
    "Longitude": "94.9144",
    "AvailableFormats": "2D"
  },
  "SVRP": {
    "VenueCode": "SVRP",
    "VenueName": "Sri Venkateswara Mahal A/C Dts: Rapur",
    "VenueAddress": "Main Road, Near Sai Baba Temple, Rapur, Andhra Pradesh 524408, India",
    "City": "Rapur",
    "State": "Andhra Pradesh",
    "RegionCode": "RAPR",
    "SubRegionCode": "RAPR",
    "Latitude": "14.2021",
    "Longitude": "79.5379",
    "AvailableFormats": "2D"
  },
  "PVDN": {
    "VenueCode": "PVDN",
    "VenueName": "PVR: Providence Mall, Pondicherry",
    "VenueAddress": "No-7, Providence Mall, 4th and 5th Floor, Venkatasubba Reddiyar Salai, Via Cuddalore Road, Near Malai Malar, Pondicherry, Tamil Nadu 605001, India",
    "City": "Pondicherry",
    "State": "Tamil Nadu",
    "RegionCode": "POND",
    "SubRegionCode": "POND",
    "Latitude": "11.9289",
    "Longitude": "79.82",
    "AvailableFormats": "2D"
  },
  "SCPY": {
    "VenueCode": "SCPY",
    "VenueName": "Shanmuga Cinemas RGB Laser Dolby Atmos: Puducherry",
    "VenueAddress": "277, Thiruvalluvar Salai, Iyyanar Nagar, Pondicherry, Tamil Nadu 605011, India",
    "City": "Pondicherry",
    "State": "Tamil Nadu",
    "RegionCode": "POND",
    "SubRegionCode": "POND",
    "Latitude": "11.9344",
    "Longitude": "79.8139",
    "AvailableFormats": "2D"
  },
  "DTPY": {
    "VenueCode": "DTPY",
    "VenueName": "Divya Theatre A/C 4K RGB LASER: Pondicherry",
    "VenueAddress": "Madukarai Road, Karikalapakkam, Pondicherry, Tamil Nadu 605007, India",
    "City": "Pondicherry",
    "State": "Tamil Nadu",
    "RegionCode": "POND",
    "SubRegionCode": "POND",
    "Latitude": "11.8642",
    "Longitude": "79.7524",
    "AvailableFormats": "2D"
  },
  "GKCS": {
    "VenueCode": "GKCS",
    "VenueName": "Gopal Krishna Multiplex: Sarangpur",
    "VenueAddress": "AB Road, Sudarshan Nagar, Sarangpur, Madhya Pradesh 465697, India",
    "City": "Sarangpur",
    "State": "Madhya Pradesh",
    "RegionCode": "SARA",
    "SubRegionCode": "SARA",
    "Latitude": "23.5761",
    "Longitude": "76.4842",
    "AvailableFormats": "2D"
  },
  "NCAM": {
    "VenueCode": "NCAM",
    "VenueName": "NY Cinemas: Anand Big Mall, Ratlam",
    "VenueAddress": "Anand Big Mall, Dmart Road, Bypass Road, Near Midtown Township, Ratlam, Madhya Pradesh 457001, India",
    "City": "Ratlam",
    "State": "Madhya Pradesh",
    "RegionCode": "RATL",
    "SubRegionCode": "RATL",
    "Latitude": "23.3329",
    "Longitude": "75.0584",
    "AvailableFormats": "2D|3D"
  },
  "BSRM": {
    "VenueCode": "BSRM",
    "VenueName": "Byte Suramandir Cinema: Palanpur",
    "VenueAddress": "Abu Highway, Behind Diti Honda Palanpur, Palanpur, Gujarat 385001, India",
    "City": "Palanpur",
    "State": "Gujarat",
    "RegionCode": "PALN",
    "SubRegionCode": "PALN",
    "Latitude": "24.1896",
    "Longitude": "72.4287",
    "AvailableFormats": "2D"
  },
  "RCLC": {
    "VenueCode": "RCLC",
    "VenueName": "Citylight Cinema: Palanpur",
    "VenueAddress": "Palliviya Nagar, Parshvanath Nagar, Palanpur, Gujarat 385001, India",
    "City": "Palanpur",
    "State": "Gujarat",
    "RegionCode": "PALN",
    "SubRegionCode": "PALN",
    "Latitude": "24.1711",
    "Longitude": "72.4341",
    "AvailableFormats": "2D"
  },
  "SKKD": {
    "VenueCode": "SKKD",
    "VenueName": "Sri Koteswara Theatre: Kandukur",
    "VenueAddress": "Pedda Bazar, DV Nagar, Kandukur, Andhra Pradesh 523105, India",
    "City": "Kandukur",
    "State": "Andhra Pradesh",
    "RegionCode": "KAND",
    "SubRegionCode": "KAND",
    "Latitude": "15.2145",
    "Longitude": "79.9049",
    "AvailableFormats": "2D"
  },
  "ACHU": {
    "VenueCode": "ACHU",
    "VenueName": "Anandamoyee Cinema Hall: Udaynarayanpur",
    "VenueAddress": "Udaynarayanpur-Pursura Road, Near Tarama Mithanno Vandar, Udaynarayanpur, West Bengal 711226, India",
    "City": "Udaynarayanpur",
    "State": "West Bengal",
    "RegionCode": "UDAY",
    "SubRegionCode": "UDAY",
    "Latitude": "22.7258",
    "Longitude": "87.9847",
    "AvailableFormats": "2D"
  },
  "RSCF": {
    "VenueCode": "RSCF",
    "VenueName": "R S Cinema: Safidon",
    "VenueAddress": "Safidon Bypass Road, Jind Marg, Safidon, Haryana 126112, India",
    "City": "Safidon",
    "State": "Haryana",
    "RegionCode": "SAFI",
    "SubRegionCode": "SAFI",
    "Latitude": "29.3996",
    "Longitude": "76.6456",
    "AvailableFormats": "2D"
  },
  "IMSH": {
    "VenueCode": "IMSH",
    "VenueName": "Imusica Cinema: Shajapur",
    "VenueAddress": "1st floor, Seva Shree Mall, Dupada Road, Near Vyas Hospital, Shajapur, Madhya Pradesh 465001, India",
    "City": "Shajapur",
    "State": "Madhya Pradesh",
    "RegionCode": "SJUR",
    "SubRegionCode": "SJUR",
    "Latitude": "23.4188",
    "Longitude": "76.2637",
    "AvailableFormats": "3D|2D"
  },
  "MACX": {
    "VenueCode": "MACX",
    "VenueName": "Manorama Cineplex: Shajapur",
    "VenueAddress": "Near Hotel Manorama Garden, Bercha Road, Shajapur, Madhya Pradesh 465001, India",
    "City": "Shajapur",
    "State": "Madhya Pradesh",
    "RegionCode": "SJUR",
    "SubRegionCode": "SJUR",
    "Latitude": "23.4169",
    "Longitude": "76.2898",
    "AvailableFormats": "2D"
  },
  "HMMW": {
    "VenueCode": "HMMW",
    "VenueName": "H2M Movieplex: Washim",
    "VenueAddress": "Upper Ground Floor,B-Wing, Patni Commercial Comple, Washim, Maharashtra 444505, India",
    "City": "Washim",
    "State": "Maharashtra",
    "RegionCode": "WASH",
    "SubRegionCode": "WASH",
    "Latitude": "20.1096",
    "Longitude": "77.1269",
    "AvailableFormats": "2D|3D"
  },
  "JTCP": {
    "VenueCode": "JTCP",
    "VenueName": "City Light Theatre: Petlad",
    "VenueAddress": "Morarji Shopping Centre, College Chokdi, Sarvodaya Society, Petlad, Gujarat 388450, India",
    "City": "Petlad",
    "State": "Gujarat",
    "RegionCode": "PETL",
    "SubRegionCode": "PETL",
    "Latitude": "22.4768",
    "Longitude": "72.8087",
    "AvailableFormats": "2D"
  },
  "SREN": {
    "VenueCode": "SREN",
    "VenueName": "Shree Cinemas: Parvathipuram",
    "VenueAddress": "Main Road, Near Central Bank of India, Parvathipuram, Andhra Pradesh 535501, India",
    "City": "Parvathipuram",
    "State": "Andhra Pradesh",
    "RegionCode": "PRVT",
    "SubRegionCode": "PRVT",
    "Latitude": "18.7771",
    "Longitude": "83.4253",
    "AvailableFormats": "2D"
  },
  "PJRR": {
    "VenueCode": "PJRR",
    "VenueName": "PVR: Mittal Mall, Ajmer",
    "VenueAddress": "4Th Floor, Mittal Mall, Prithviraj Marg, Hathi Bhata, Ajmer, Rajasthan 305001, India",
    "City": "Ajmer",
    "State": "Rajasthan",
    "RegionCode": "AJMER",
    "SubRegionCode": "AJMER",
    "Latitude": "26.4631",
    "Longitude": "74.6337",
    "AvailableFormats": "2D|3D"
  },
  "INAC": {
    "VenueCode": "INAC",
    "VenueName": "INOX: City Square Mall, Ajmer",
    "VenueAddress": "3rd Floor, City Square Mall, A Block Panchsheel Colony, Makarwali Road, Ajmer, Rajasthan 305004, India",
    "City": "Ajmer",
    "State": "Rajasthan",
    "RegionCode": "AJMER",
    "SubRegionCode": "AJMER",
    "Latitude": "26.5147",
    "Longitude": "74.6339",
    "AvailableFormats": "2D|3D"
  },
  "BMCA": {
    "VenueCode": "BMCA",
    "VenueName": "Miraj Bioscope Cinemas: Ajmer",
    "VenueAddress": "CineMall Soni Colony, ASC Road, Near Ana Sagar Lake, Ajmer, Rajasthan 305001, India",
    "City": "Ajmer",
    "State": "Rajasthan",
    "RegionCode": "AJMER",
    "SubRegionCode": "AJMER",
    "Latitude": "26.481",
    "Longitude": "74.6313",
    "AvailableFormats": "2D|3D"
  },
  "SHCB": {
    "VenueCode": "SHCB",
    "VenueName": "Shankar Cinema: Baindur",
    "VenueAddress": "NH 17, Udupi - Hebre Road, Near Baindur Fish Market, Baindur, Karnataka 576214, India",
    "City": "Baindur",
    "State": "Karnataka",
    "RegionCode": "BAND",
    "SubRegionCode": "BAND",
    "Latitude": "13.8666",
    "Longitude": "74.6276",
    "AvailableFormats": "2D"
  },
  "GABA": {
    "VenueCode": "GABA",
    "VenueName": "Galaxy Cinema: Babra",
    "VenueAddress": "City Survey No. 2791, Patidar Complex, Bhavnagar Road, Kalal Chowk Babra Amreli, Babra, Gujarat 365421, India",
    "City": "Babra",
    "State": "Gujarat",
    "RegionCode": "BABT",
    "SubRegionCode": "BABT",
    "Latitude": "21.8448",
    "Longitude": "71.3052",
    "AvailableFormats": "2D"
  },
  "SBCT": {
    "VenueCode": "SBCT",
    "VenueName": "Sri Balaji Chitramandira: Magadi",
    "VenueAddress": "Guddemaranahalli Main Road, Near Venkateshwara Wine Shop, Magadi, Karnataka 562120, India",
    "City": "Magadi",
    "State": "Karnataka",
    "RegionCode": "MAGA",
    "SubRegionCode": "MAGA",
    "Latitude": "12.9605",
    "Longitude": "77.2372",
    "AvailableFormats": "2D"
  },
  "GCMA": {
    "VenueCode": "GCMA",
    "VenueName": "Gold Cinema: Morena",
    "VenueAddress": "Hariraj Palace, M S Road, Morena, Madhya Pradesh 476001, India",
    "City": "Morena",
    "State": "Madhya Pradesh",
    "RegionCode": "MRMP",
    "SubRegionCode": "MRMP",
    "Latitude": "26.4905",
    "Longitude": "77.9869",
    "AvailableFormats": "2D"
  },
  "MYTK": {
    "VenueCode": "MYTK",
    "VenueName": "Mayur Talkies: Morena",
    "VenueAddress": "H B Colony, Nainagarh Road, Nearby B.N Garden, Morena, Madhya Pradesh 476001, India",
    "City": "Morena",
    "State": "Madhya Pradesh",
    "RegionCode": "MRMP",
    "SubRegionCode": "MRMP",
    "Latitude": "26.4965",
    "Longitude": "77.9884",
    "AvailableFormats": "2D"
  },
  "INZS": {
    "VenueCode": "INZS",
    "VenueName": "INOX: Z Square, Bada Chauraha",
    "VenueAddress": "3rd Floor, Z Square Mall, Bada Chauraha, Mahatma Gandhi Road, Mall Road, Downtown, Kanpur, Uttar Pradesh 208001, India",
    "City": "Kanpur",
    "State": "Uttar Pradesh",
    "RegionCode": "KANP",
    "SubRegionCode": "KANP",
    "Latitude": "26.473",
    "Longitude": "80.353",
    "AvailableFormats": "2D|3D"
  },
  "RMIK": {
    "VenueCode": "RMIK",
    "VenueName": "Rave Moti Cinemas: Kanpur",
    "VenueAddress": "117/K/13, Moti Rave Mall New, Rawatpur Main Road, Gutaiya, Kanpur, Uttar Pradesh 208026, India",
    "City": "Kanpur",
    "State": "Uttar Pradesh",
    "RegionCode": "KANP",
    "SubRegionCode": "KANP",
    "Latitude": "26.4813",
    "Longitude": "80.3001",
    "AvailableFormats": "2D|3D"
  },
  "NYCH": {
    "VenueCode": "NYCH",
    "VenueName": "NY Cinemas: Heer Palace, Kanpur",
    "VenueAddress": "63/1A, Heer Palace,Sadr Bazaar, The Mall, Kanpur, Uttar Pradesh 208001, India",
    "City": "Kanpur",
    "State": "Uttar Pradesh",
    "RegionCode": "KANP",
    "SubRegionCode": "KANP",
    "Latitude": "26.4617",
    "Longitude": "80.3593",
    "AvailableFormats": "2D"
  },
  "RAVE": {
    "VenueCode": "RAVE",
    "VenueName": "Rave 3 AV Cinemas: Kanpur",
    "VenueAddress": "Plot No. 11, Block, No. 6, Parwati Bagla Road, Permat, Kanpur, Uttar Pradesh 208002, India",
    "City": "Kanpur",
    "State": "Uttar Pradesh",
    "RegionCode": "KANP",
    "SubRegionCode": "KANP",
    "Latitude": "26.4923",
    "Longitude": "80.3275",
    "AvailableFormats": "2D"
  },
  "PSXM": {
    "VenueCode": "PSXM",
    "VenueName": "PVR: South X Mall, Kanpur",
    "VenueAddress": "Plot No.9, Block O South X Mall, Near Baba Khutti Chawraha, Kidwai Nagar Bypass Road, Scheme II, Kanpur, Uttar Pradesh 208002, India",
    "City": "Kanpur",
    "State": "Uttar Pradesh",
    "RegionCode": "KANP",
    "SubRegionCode": "KANP",
    "Latitude": "26.4378",
    "Longitude": "80.3358",
    "AvailableFormats": "2D|3D"
  },
  "MCGP": {
    "VenueCode": "MCGP",
    "VenueName": "Miraj Cinemas: Gurdev Pammi, Kanpur",
    "VenueAddress": "Gurdev Palace Complex, 181-184, Lakhanpur, G. T. Road, Kanpur, Uttar Pradesh 208024, India",
    "City": "Kanpur",
    "State": "Uttar Pradesh",
    "RegionCode": "KANP",
    "SubRegionCode": "KANP",
    "Latitude": "26.4907",
    "Longitude": "80.2847",
    "AvailableFormats": "2D|3D"
  },
  "PDDK": {
    "VenueCode": "PDDK",
    "VenueName": "PVR: Deep, Kanpur",
    "VenueAddress": "Deep Cinema Road, 127/1/2 W-1, Saket Nagar, Kanpur, Uttar Pradesh 208014, India",
    "City": "Kanpur",
    "State": "Uttar Pradesh",
    "RegionCode": "KANP",
    "SubRegionCode": "KANP",
    "Latitude": "26.4407",
    "Longitude": "80.3104",
    "AvailableFormats": "3D|2D"
  },
  "SPCK": {
    "VenueCode": "SPCK",
    "VenueName": "Shyam Palace Cinema: Kanpur",
    "VenueAddress": "127, 178,Juhi Hamirpur Road, Kidwai Nagar, Near GPG School, Kanpur, Uttar Pradesh 208014, India",
    "City": "Kanpur",
    "State": "Uttar Pradesh",
    "RegionCode": "KANP",
    "SubRegionCode": "KANP",
    "Latitude": "26.4455",
    "Longitude": "80.3283",
    "AvailableFormats": "2D"
  },
  "MCRL": {
    "VenueCode": "MCRL",
    "VenueName": "Movietime Cinemas: Ratan Elegance, Kanpur",
    "VenueAddress": "Ratan Elegance, Afim Kothi Chauraha, 86/275, Rajpurwa, Kanpur, Uttar Pradesh 208012, India",
    "City": "Kanpur",
    "State": "Uttar Pradesh",
    "RegionCode": "KANP",
    "SubRegionCode": "KANP",
    "Latitude": "26.4564",
    "Longitude": "80.3342",
    "AvailableFormats": "2D|3D"
  },
  "MHKT": {
    "VenueCode": "MHKT",
    "VenueName": "Movietime Cinemas: Ratan Himachal Mall, Kanpur",
    "VenueAddress": "1st Floor Ratan Himachal Mall Ghumti No-5, Naseemabad Road, Kaushalpuri Darshan Purwa, Kanpur, Uttar Pradesh 208012, India",
    "City": "Kanpur",
    "State": "Uttar Pradesh",
    "RegionCode": "KANP",
    "SubRegionCode": "KANP",
    "Latitude": "26.4673",
    "Longitude": "80.3172",
    "AvailableFormats": "2D"
  },
  "ANRR": {
    "VenueCode": "ANRR",
    "VenueName": "Navrang Cineplex: Kanpur",
    "VenueAddress": "Birhana Road, Naughara, General Ganj, Kanpur, Uttar Pradesh 208001, India",
    "City": "Kanpur",
    "State": "Uttar Pradesh",
    "RegionCode": "KANP",
    "SubRegionCode": "KANP",
    "Latitude": "26.4643",
    "Longitude": "80.3573",
    "AvailableFormats": "2D"
  },
  "SAPK": {
    "VenueCode": "SAPK",
    "VenueName": "Sapna Palace Cinema: Kanpur",
    "VenueAddress": "129 A, M.G Road, The Mall, Kanpur, Uttar Pradesh 208004, India",
    "City": "Kanpur",
    "State": "Uttar Pradesh",
    "RegionCode": "KANP",
    "SubRegionCode": "KANP",
    "Latitude": "26.4611",
    "Longitude": "80.3602",
    "AvailableFormats": "2D"
  },
  "NCUK": {
    "VenueCode": "NCUK",
    "VenueName": "Novelty Cinema: Kanpur",
    "VenueAddress": "77/151, Latouche Road, Khoya Bazar, Mulganj, Kanpur, Uttar Pradesh 208001, India",
    "City": "Kanpur",
    "State": "Uttar Pradesh",
    "RegionCode": "KANP",
    "SubRegionCode": "KANP",
    "Latitude": "26.4647",
    "Longitude": "80.3463",
    "AvailableFormats": "2D"
  },
  "JUGA": {
    "VenueCode": "JUGA",
    "VenueName": "Jugul Palace Cinema: Kanpur",
    "VenueAddress": "GT Road, Krishna Nagar, Near State Bank, Kanpur, Uttar Pradesh 208010, India",
    "City": "Kanpur",
    "State": "Uttar Pradesh",
    "RegionCode": "KANP",
    "SubRegionCode": "KANP",
    "Latitude": "26.4218",
    "Longitude": "80.3734",
    "AvailableFormats": "2D"
  },
  "DBSC": {
    "VenueCode": "DBSC",
    "VenueName": "Delite Big Screen Cinema: Kanpur",
    "VenueAddress": "Delite Cinema, 562, Jaipuria Road, 1 No. Station, Rail Bazar, Mirpur Cantonment, Mirpur, Kanpur, Uttar Pradesh 208004, India",
    "City": "Kanpur",
    "State": "Uttar Pradesh",
    "RegionCode": "KANP",
    "SubRegionCode": "KANP",
    "Latitude": "26.4526",
    "Longitude": "80.3501",
    "AvailableFormats": "2D"
  },
  "LALK": {
    "VenueCode": "LALK",
    "VenueName": "Lal Palace: Kanpur",
    "VenueAddress": "127/401 A, Block S, Kanpur Nagar, Kanpur, Uttar Pradesh 208014, India",
    "City": "Kanpur",
    "State": "Uttar Pradesh",
    "RegionCode": "KANP",
    "SubRegionCode": "KANP",
    "Latitude": "26.4401",
    "Longitude": "80.3238",
    "AvailableFormats": "2D"
  },
  "GUCK": {
    "VenueCode": "GUCK",
    "VenueName": "Gunjan Cinema: Kanpur",
    "VenueAddress": "87/8, Gunjan Cinema, G.T.Road, Kanpur Nagar, Near Society Motors, Kanpur, Uttar Pradesh 208003, India",
    "City": "Kanpur",
    "State": "Uttar Pradesh",
    "RegionCode": "KANP",
    "SubRegionCode": "KANP",
    "Latitude": "26.4607",
    "Longitude": "80.327",
    "AvailableFormats": "2D"
  },
  "STSG": {
    "VenueCode": "STSG",
    "VenueName": "Saraswati Talkies: Shuklagunj",
    "VenueAddress": "Near Bharat Petroleum, Rajdhani Marg, Modern Colony, Shuklaganj, Netua Grameen, Kanpur, Uttar Pradesh 209861, India",
    "City": "Kanpur",
    "State": "Uttar Pradesh",
    "RegionCode": "KANP",
    "SubRegionCode": "KANP",
    "Latitude": "26.4759",
    "Longitude": "80.3836",
    "AvailableFormats": "2D"
  },
  "PPPZ": {
    "VenueCode": "PPPZ",
    "VenueName": "Paradise Platinum Plaza: Sagar",
    "VenueAddress": "Jabalpur Road, Shri Nagar Colony, Makroniya, Sagar, Madhya Pradesh 470001, India",
    "City": "Sagar",
    "State": "Madhya Pradesh",
    "RegionCode": "SAMP",
    "SubRegionCode": "SAMP",
    "Latitude": "23.8632",
    "Longitude": "78.8001",
    "AvailableFormats": "2D"
  },
  "CNCY": {
    "VenueCode": "CNCY",
    "VenueName": "Cine City: Sagar",
    "VenueAddress": "National Highway No 26, Jhansi Road, Makronia Camp, Above Parinay Banquet Hall, Sagar, Madhya Pradesh 470004, India",
    "City": "Sagar",
    "State": "Madhya Pradesh",
    "RegionCode": "SAMP",
    "SubRegionCode": "SAMP",
    "Latitude": "23.8526",
    "Longitude": "78.7808",
    "AvailableFormats": "2D"
  },
  "MTAR": {
    "VenueCode": "MTAR",
    "VenueName": "Milan Talkies: Rajgangpur",
    "VenueAddress": "Subhas Chowk, R.G.P Main Road, Near DHP Shah Hindustan Petrol Pump, Rajgangpur, Odisha 770017, India",
    "City": "Rajgangpur",
    "State": "Odisha",
    "RegionCode": "RJGR",
    "SubRegionCode": "RJGR",
    "Latitude": "22.1913",
    "Longitude": "84.5893",
    "AvailableFormats": "2D"
  },
  "VNKD": {
    "VenueCode": "VNKD",
    "VenueName": "Venkateswara Talkies: Narayankhed",
    "VenueAddress": "Zaheerabad Road, Near Bustand, Narayankhed, Telangana 502286, India",
    "City": "Narayankhed",
    "State": "Telangana",
    "RegionCode": "NARY",
    "SubRegionCode": "NARY",
    "Latitude": "18.0327",
    "Longitude": "77.7727",
    "AvailableFormats": "2D"
  },
  "KMAJ": {
    "VenueCode": "KMAJ",
    "VenueName": "K Mahindra Cinema: Lonand",
    "VenueAddress": "Near Kumar Gas Egancy, Gyanaba Mauli Road, Lonand, Maharashtra 415521, India",
    "City": "Lonand",
    "State": "Maharashtra",
    "RegionCode": "LONZ",
    "SubRegionCode": "LONZ",
    "Latitude": "18.038",
    "Longitude": "74.1832",
    "AvailableFormats": "2D"
  },
  "ACXK": {
    "VenueCode": "ACXK",
    "VenueName": "Anupam Cineplex: Kichha",
    "VenueAddress": "Bareilly Road, Main Market, Kichha, Uttarakhand 263148, India",
    "City": "Kichha",
    "State": "Uttarakhand",
    "RegionCode": "KCHA",
    "SubRegionCode": "KCHA",
    "Latitude": "28.9107",
    "Longitude": "79.5144",
    "AvailableFormats": "2D"
  },
  "UTKC": {
    "VenueCode": "UTKC",
    "VenueName": "Urvashi Cineplex: Kichha",
    "VenueAddress": "Bareilly Road, Udham Singh Nagar, Kichha, Uttarakhand 263148, India",
    "City": "Kichha",
    "State": "Uttarakhand",
    "RegionCode": "KCHA",
    "SubRegionCode": "KCHA",
    "Latitude": "28.9099",
    "Longitude": "79.5137",
    "AvailableFormats": "2D"
  },
  "PBLK": {
    "VenueCode": "PBLK",
    "VenueName": "PB Cinemas: Kushinagar",
    "VenueAddress": "Tamkuhi Road - Thakrahan Road, Sewarhi, Turkwalia Sahabganj, Kushinagar, Uttar Pradesh 274406, India",
    "City": "Kushinagar",
    "State": "Uttar Pradesh",
    "RegionCode": "KUSH",
    "SubRegionCode": "KUSH",
    "Latitude": "26.7283",
    "Longitude": "84.2375",
    "AvailableFormats": "2D"
  },
  "ACBX": {
    "VenueCode": "ACBX",
    "VenueName": "AAB Cineplex: Birra",
    "VenueAddress": "Near SBI bank, Gatwa, Birra, Birra, Chhattisgarh 495661, India",
    "City": "Birra",
    "State": "Chhattisgarh",
    "RegionCode": "BIRR",
    "SubRegionCode": "BIRR",
    "Latitude": "21.7551",
    "Longitude": "82.7759",
    "AvailableFormats": "2D"
  },
  "PTGM": {
    "VenueCode": "PTGM",
    "VenueName": "PictureTime MCG Cinemas : Gadchiroli",
    "VenueAddress": "Mobile Digital Movie Theatre, Near Swaraj Health, Gadchiroli, Maharashtra 442605, India",
    "City": "Gadchiroli",
    "State": "Maharashtra",
    "RegionCode": "GDRO",
    "SubRegionCode": "GDRO",
    "Latitude": "20.1853",
    "Longitude": "80.0156",
    "AvailableFormats": "2D"
  },
  "BTDA": {
    "VenueCode": "BTDA",
    "VenueName": "Balaji Theatre A/C Dolby 7.1: Acharapakkam",
    "VenueAddress": "Periyar Nagar, Acharapakam, Near Abhiram Honda Showroom, Acharapakkam, Tamil Nadu 603301, India",
    "City": "Acharapakkam",
    "State": "Tamil Nadu",
    "RegionCode": "ACHA",
    "SubRegionCode": "ACHA",
    "Latitude": "12.4071",
    "Longitude": "79.8161",
    "AvailableFormats": "2D"
  },
  "PJMB": {
    "VenueCode": "PJMB",
    "VenueName": "PJ Movies: Barbil, Odisha",
    "VenueAddress": "Gandhi Chowk, Behind Cinema Theater, Barbil, Odisha 758035, India",
    "City": "Barbil",
    "State": "Odisha",
    "RegionCode": "BABR",
    "SubRegionCode": "BABR",
    "Latitude": "22.0998",
    "Longitude": "85.3849",
    "AvailableFormats": "2D"
  },
  "TPDA": {
    "VenueCode": "TPDA",
    "VenueName": "Miraj Cinemas: Tapadia City Centre Mall, Amravati",
    "VenueAddress": "2nd Floor, Badnera Road, Amravati, Maharashtra 444607, India",
    "City": "Amravati",
    "State": "Maharashtra",
    "RegionCode": "AMRA",
    "SubRegionCode": "AMRA",
    "Latitude": "20.9",
    "Longitude": "77.7482",
    "AvailableFormats": "2D|3D"
  },
  "AMOE": {
    "VenueCode": "AMOE",
    "VenueName": "E Orbit Multiplex: Amravati",
    "VenueAddress": "Elite Mall, Guruchhaya Colony, Saturna, Sai Nagar,Badnera Road, Near Bhakti Dham Mandir, Amravati, Maharashtra 444607, India",
    "City": "Amravati",
    "State": "Maharashtra",
    "RegionCode": "AMRA",
    "SubRegionCode": "AMRA",
    "Latitude": "20.8983",
    "Longitude": "77.7477",
    "AvailableFormats": "3D|2D"
  },
  "PRHT": {
    "VenueCode": "PRHT",
    "VenueName": "Prabhat Talkies: Amravati",
    "VenueAddress": "Prabhat Talkies, Jawahar Gate Road, Amravati Camp, Behind Mahila Vidyalaya, Amravati, Maharashtra 444602, India",
    "City": "Amravati",
    "State": "Maharashtra",
    "RegionCode": "AMRA",
    "SubRegionCode": "AMRA",
    "Latitude": "20.9311",
    "Longitude": "77.7517",
    "AvailableFormats": "2D"
  },
  "PRTA": {
    "VenueCode": "PRTA",
    "VenueName": "Priya Talkies: Amravati",
    "VenueAddress": "Jaistambh Chowk, Morshi Road, Near ICICI Bank, Amravati, Maharashtra 444601, India",
    "City": "Amravati",
    "State": "Maharashtra",
    "RegionCode": "AMRA",
    "SubRegionCode": "AMRA",
    "Latitude": "20.931",
    "Longitude": "77.7555",
    "AvailableFormats": "2D"
  },
  "STAM": {
    "VenueCode": "STAM",
    "VenueName": "FUN Cinemas Saroj Talkies: Amravati",
    "VenueAddress": "Saroj Chowk, Amravati Ho, Jawahar Gate Road, Amravati, Maharashtra 444601, India",
    "City": "Amravati",
    "State": "Maharashtra",
    "RegionCode": "AMRA",
    "SubRegionCode": "AMRA",
    "Latitude": "20.9316",
    "Longitude": "77.7532",
    "AvailableFormats": "2D"
  },
  "MSAA": {
    "VenueCode": "MSAA",
    "VenueName": "7D Masti: Tapadia City Center, Amravati",
    "VenueAddress": "Gopal Nagar Square, Badnera Road, Amravati, Maharashtra 444607, India",
    "City": "Amravati",
    "State": "Maharashtra",
    "RegionCode": "AMRA",
    "SubRegionCode": "AMRA",
    "Latitude": "20.8999",
    "Longitude": "77.7484",
    "AvailableFormats": "7D"
  },
  "SDLU": {
    "VenueCode": "SDLU",
    "VenueName": "SVF Cinemas: Habra",
    "VenueAddress": "3rd Floor, City Centre Habra, 308/143 Jessore Road, Kamarthuba Road, Near Joygachi Bus Stand, Habra, West Bengal 743263, India",
    "City": "Habra",
    "State": "West Bengal",
    "RegionCode": "HARR",
    "SubRegionCode": "HARR",
    "Latitude": "22.8493",
    "Longitude": "88.6633",
    "AvailableFormats": "3D|2D"
  },
  "RCHH": {
    "VenueCode": "RCHH",
    "VenueName": "Rupkatha Cinema: Habra",
    "VenueAddress": "Thakurnagar Panchpota Road, NH 35, Habra, West Bengal 743268, India",
    "City": "Habra",
    "State": "West Bengal",
    "RegionCode": "HARR",
    "SubRegionCode": "HARR",
    "Latitude": "22.8402",
    "Longitude": "88.6527",
    "AvailableFormats": "2D"
  },
  "KANT": {
    "VenueCode": "KANT",
    "VenueName": "Kantishiva Multiplex: Betul",
    "VenueAddress": "Near Railway Station, Betulganj, Near Kantishiva Chowk, Betul, Madhya Pradesh 460001, India",
    "City": "Betul",
    "State": "Madhya Pradesh",
    "RegionCode": "BETU",
    "SubRegionCode": "BETU",
    "Latitude": "21.8984",
    "Longitude": "77.9051",
    "AvailableFormats": "2D|3D"
  },
  "FCRT": {
    "VenueCode": "FCRT",
    "VenueName": "Rajtilak Multiscreen: Betul",
    "VenueAddress": "Hirani Marg, Ganj, Opposite Kapoor Furnitures, Betul, Madhya Pradesh 460001, India",
    "City": "Betul",
    "State": "Madhya Pradesh",
    "RegionCode": "BETU",
    "SubRegionCode": "BETU",
    "Latitude": "21.9002",
    "Longitude": "77.9061",
    "AvailableFormats": "2D"
  },
  "DNKM": {
    "VenueCode": "DNKM",
    "VenueName": "Dhanya Remya: Kollam",
    "VenueAddress": "Kadapakkada, Kappalandimukku - Kadappakkada Road, Near The Hindu News Paper, Kollam, Kerala 691008, India",
    "City": "Kollam",
    "State": "Kerala",
    "RegionCode": "KOLM",
    "SubRegionCode": "KOLM",
    "Latitude": "8.89143",
    "Longitude": "76.6034",
    "AvailableFormats": "2D"
  },
  "RYCP": {
    "VenueCode": "RYCP",
    "VenueName": "Revathy Cinemax: RGB Real Laser, Parippally",
    "VenueAddress": "KSEB Substation, Kulamada Parippally, Near Grudeva Temple Kulamada, Kollam, Kerala 695603, India",
    "City": "Kollam",
    "State": "Kerala",
    "RegionCode": "KOLM",
    "SubRegionCode": "KOLM",
    "Latitude": "8.81177",
    "Longitude": "76.7723",
    "AvailableFormats": "2D"
  },
  "MYRP": {
    "VenueCode": "MYRP",
    "VenueName": "MY Cinemas, RP Mall: Kollam",
    "VenueAddress": "RP Mall, Level 5, Salem-Kochi Highway, Near Reliance Trends, Kollam, Kerala 691001, India",
    "City": "Kollam",
    "State": "Kerala",
    "RegionCode": "KOLM",
    "SubRegionCode": "KOLM",
    "Latitude": "8.88953",
    "Longitude": "76.5858",
    "AvailableFormats": "2D"
  },
  "PPAK": {
    "VenueCode": "PPAK",
    "VenueName": "Partha Movie Houses 4K ATMOS",
    "VenueAddress": "National Highway 744, Karicode, Peroor, Kottamkara, Kerala, Kollam, Kerala 691005, India",
    "City": "Kollam",
    "State": "Kerala",
    "RegionCode": "KOLM",
    "SubRegionCode": "KOLM",
    "Latitude": "8.90595",
    "Longitude": "76.6233",
    "AvailableFormats": "2D"
  },
  "NVPK": {
    "VenueCode": "NVPK",
    "VenueName": "NVP Cinema A/C: Oyoor 4K 3D",
    "VenueAddress": "Oyoor, Ayoor Ithikkara Rd, Near Oyoor Bus Stop, Kollam, Kerala 691537, India",
    "City": "Kollam",
    "State": "Kerala",
    "RegionCode": "KOLM",
    "SubRegionCode": "KOLM",
    "Latitude": "8.87473",
    "Longitude": "76.7745",
    "AvailableFormats": "2D"
  },
  "PRMC": {
    "VenueCode": "PRMC",
    "VenueName": "Pranavam A/C Cinemas 4K: Kollam",
    "VenueAddress": "Karbala, YMCA Road, Near Cantonment Post Office, Kollam, Kerala 691001, India",
    "City": "Kollam",
    "State": "Kerala",
    "RegionCode": "KOLM",
    "SubRegionCode": "KOLM",
    "Latitude": "8.88456",
    "Longitude": "76.5948",
    "AvailableFormats": "2D"
  },
  "JBCS": {
    "VenueCode": "JBCS",
    "VenueName": "JB Cinemas 4K 3D: Nallila",
    "VenueAddress": "Almavu Mukku Road, Nallila, Puliyila, Near Nallila Post Office, Kollam, Kerala 691515, India",
    "City": "Kollam",
    "State": "Kerala",
    "RegionCode": "KOLM",
    "SubRegionCode": "KOLM",
    "Latitude": "8.92847",
    "Longitude": "76.7067",
    "AvailableFormats": "2D"
  },
  "GXCK": {
    "VenueCode": "GXCK",
    "VenueName": "Gmax Cinemas Jerome 3D 7.1 JBL: Kollam",
    "VenueAddress": "Bishop Jerome Nagar, 6th Avenue, 4th Floor, Chinnakkada, Kollam, Near State Bank of India, Kollam, Kerala 691001, India",
    "City": "Kollam",
    "State": "Kerala",
    "RegionCode": "KOLM",
    "SubRegionCode": "KOLM",
    "Latitude": "8.88672",
    "Longitude": "76.5888",
    "AvailableFormats": "2D"
  },
  "USKO": {
    "VenueCode": "USKO",
    "VenueName": "Usha A/C Cinema 2K 3D: Kollam",
    "VenueAddress": "Main Road, Andamukkom, Chinnagada, Near Clock Tower, Kollam, Kerala 691001, India",
    "City": "Kollam",
    "State": "Kerala",
    "RegionCode": "KOLM",
    "SubRegionCode": "KOLM",
    "Latitude": "8.88458",
    "Longitude": "76.591",
    "AvailableFormats": "2D"
  },
  "GTEM": {
    "VenueCode": "GTEM",
    "VenueName": "Theatre Gurushree 2K: Mandya",
    "VenueAddress": "National Highway 275, BM Road, Mandya, Karnataka 571401, India",
    "City": "Mandya",
    "State": "Karnataka",
    "RegionCode": "MND",
    "SubRegionCode": "MND",
    "Latitude": "12.5279",
    "Longitude": "76.8884",
    "AvailableFormats": "2D"
  },
  "SMBU": {
    "VenueCode": "SMBU",
    "VenueName": "Sri Maruthi Cinemas: Belluru Cross",
    "VenueAddress": "Belluru Cross, Mandya, NH-48, Bengaluru Mangaluru Road, Nagamangala, Mandya, Karnataka 571418, India",
    "City": "Mandya",
    "State": "Karnataka",
    "RegionCode": "MND",
    "SubRegionCode": "MND",
    "Latitude": "12.9613",
    "Longitude": "76.7436",
    "AvailableFormats": "2D"
  },
  "VETC": {
    "VenueCode": "VETC",
    "VenueName": "Vetri Cinemas Dolby Atmos: Theni",
    "VenueAddress": "National Theatre, RMTC Colony, Allinagaram, Theni, Tamil Nadu 625531, India",
    "City": "Theni",
    "State": "Tamil Nadu",
    "RegionCode": "THEN",
    "SubRegionCode": "THEN",
    "Latitude": "10.0084",
    "Longitude": "77.4722",
    "AvailableFormats": "2D"
  },
  "LCDA": {
    "VenueCode": "LCDA",
    "VenueName": "Lucky Cinemas Dolby Atmos: Periyakulam",
    "VenueAddress": "1/348 State Bank Colony, Keelavadakarai, Periyakulam, Theni, Tamil Nadu 625601, India",
    "City": "Theni",
    "State": "Tamil Nadu",
    "RegionCode": "THEN",
    "SubRegionCode": "THEN",
    "Latitude": "10.1265",
    "Longitude": "77.5375",
    "AvailableFormats": "2D"
  },
  "MTVT": {
    "VenueCode": "MTVT",
    "VenueName": "MSP Theatre(VBL Theatre) A/C 7.1: Andipatti",
    "VenueAddress": "Theni Highway, Kondamanaickanpatty, Theni, Tamil Nadu 624225, India",
    "City": "Theni",
    "State": "Tamil Nadu",
    "RegionCode": "THEN",
    "SubRegionCode": "THEN",
    "Latitude": "10.0014",
    "Longitude": "77.6283",
    "AvailableFormats": "2D"
  },
  "PYCP": {
    "VenueCode": "PYCP",
    "VenueName": "Parvathy Cinemas Dolby Atmos: Periyakulam",
    "VenueAddress": "No 38, Cumbum Road, Near Lakshmi Hospital, Theni, Tamil Nadu 625601, India",
    "City": "Theni",
    "State": "Tamil Nadu",
    "RegionCode": "THEN",
    "SubRegionCode": "THEN",
    "Latitude": "10.1165",
    "Longitude": "77.5464",
    "AvailableFormats": "2D"
  },
  "PNSC": {
    "VenueCode": "PNSC",
    "VenueName": "Ponnusamy Theatre A/C 4K Dolby 7.1 3D: Chinnamanur",
    "VenueAddress": "26A, National Highway 183, Near Indian Bank, Theni, Tamil Nadu 625515, India",
    "City": "Theni",
    "State": "Tamil Nadu",
    "RegionCode": "THEN",
    "SubRegionCode": "THEN",
    "Latitude": "9.83771",
    "Longitude": "77.3802",
    "AvailableFormats": "2D"
  },
  "PPCC": {
    "VenueCode": "PPCC",
    "VenueName": "Pavalam Theatre A/C 4K 7.1 Dolby 3D: Periyakulam",
    "VenueAddress": "Pavalam Theatre, Theni Highway, Periyakulam, Theni, Tamil Nadu 625601, India",
    "City": "Theni",
    "State": "Tamil Nadu",
    "RegionCode": "THEN",
    "SubRegionCode": "THEN",
    "Latitude": "10.1135",
    "Longitude": "77.5464",
    "AvailableFormats": "2D"
  },
  "TGRT": {
    "VenueCode": "TGRT",
    "VenueName": "Thiyagaraja Theatre: Pannaipuram",
    "VenueAddress": "State Highway 100, Palayam Bodi Street Pannaipuram, Near PTV Thiagarajar Memorial, Theni, Tamil Nadu 625524, India",
    "City": "Theni",
    "State": "Tamil Nadu",
    "RegionCode": "THEN",
    "SubRegionCode": "THEN",
    "Latitude": "9.86754",
    "Longitude": "77.2853",
    "AvailableFormats": "2D"
  },
  "JYOT": {
    "VenueCode": "JYOT",
    "VenueName": "Jyothi 70MM: Sadasivpet",
    "VenueAddress": "NH 65, Main Road, Mumbai Highway, Near SBI, Sadasivpet, Telangana 502291, India",
    "City": "Sadasivpet",
    "State": "Telangana",
    "RegionCode": "SADA",
    "SubRegionCode": "SADA",
    "Latitude": "17.6159",
    "Longitude": "77.9576",
    "AvailableFormats": "2D"
  },
  "SRCZ": {
    "VenueCode": "SRCZ",
    "VenueName": "Sri Chandra & Sri Ramachandra Theaters: Kankipadu",
    "VenueAddress": "Royyuru Kankipadu Road, Opposite Kankipadu Panchayati Office, Kankipadu, Andhra Pradesh 521151, India",
    "City": "Kankipadu",
    "State": "Andhra Pradesh",
    "RegionCode": "KADU",
    "SubRegionCode": "KADU",
    "Latitude": "16.4328",
    "Longitude": "80.768",
    "AvailableFormats": "2D"
  },
  "SJTE": {
    "VenueCode": "SJTE",
    "VenueName": "Sujata Theatre: Wani",
    "VenueAddress": "Near Nagar Parishad, Sano George Nagar, Wani, Maharashtra 445304, India",
    "City": "Wani",
    "State": "Maharashtra",
    "RegionCode": "WANI",
    "SubRegionCode": "WANI",
    "Latitude": "20.0528",
    "Longitude": "78.9563",
    "AvailableFormats": "2D"
  },
  "DESC": {
    "VenueCode": "DESC",
    "VenueName": "Deepti Sky Cinex: Wani",
    "VenueAddress": "MIDC Road, Wani, Near Hanuman Temple, Wani, Maharashtra 445304, India",
    "City": "Wani",
    "State": "Maharashtra",
    "RegionCode": "WANI",
    "SubRegionCode": "WANI",
    "Latitude": "20.0441",
    "Longitude": "78.9582",
    "AvailableFormats": "2D"
  },
  "JHVN": {
    "VenueCode": "JHVN",
    "VenueName": "JHV Cinemas: Varanasi",
    "VenueAddress": "JHV Mall, The Mall Road, Cantonment, Varanasi Cantt, Near Nehru Park, Varanasi, Uttar Pradesh 221001, India",
    "City": "Varanasi",
    "State": "Uttar Pradesh",
    "RegionCode": "VAR",
    "SubRegionCode": "VAR",
    "Latitude": "25.3358",
    "Longitude": "82.9773",
    "AvailableFormats": "2D"
  },
  "IPSG": {
    "VenueCode": "IPSG",
    "VenueName": "IP Cinemas: IP Sigra Mall, Varanasi",
    "VenueAddress": "IP SIGRA Shopping Mall, Vidyapeeth Road, Sigra, Shastri Nagar, Guru Nanak Nagar Colony, IP Mall, Varanasi, Uttar Pradesh 221002, India",
    "City": "Varanasi",
    "State": "Uttar Pradesh",
    "RegionCode": "VAR",
    "SubRegionCode": "VAR",
    "Latitude": "25.3167",
    "Longitude": "82.9901",
    "AvailableFormats": "2D"
  },
  "IPCM": {
    "VenueCode": "IPCM",
    "VenueName": "IP Cinemas: IP Vijaya Mall, Varanasi",
    "VenueAddress": "Vijaya Mall, Bhelupur Crossing, Durgakund Road, Varanasi, Uttar Pradesh 221010, India",
    "City": "Varanasi",
    "State": "Uttar Pradesh",
    "RegionCode": "VAR",
    "SubRegionCode": "VAR",
    "Latitude": "25.2975",
    "Longitude": "83.0012",
    "AvailableFormats": "2D"
  },
  "PDRS": {
    "VenueCode": "PDRS",
    "VenueName": "PDR Cinemas: Varanasi",
    "VenueAddress": "D 48/142, Luxa Road, Sidhgiribagh, Near Sri Basdev Baba Mandir, Varanasi, Uttar Pradesh 221001, India",
    "City": "Varanasi",
    "State": "Uttar Pradesh",
    "RegionCode": "VAR",
    "SubRegionCode": "VAR",
    "Latitude": "25.3098",
    "Longitude": "83.0029",
    "AvailableFormats": "2D|3D"
  },
  "ANCV": {
    "VenueCode": "ANCV",
    "VenueName": "Anand Mandir Cinema: Varanasi",
    "VenueAddress": "S 13/18, Anand Mandir Andhrapull, Teliyabag, Raja Bazar Road, Varanasi, Uttar Pradesh 221002, India",
    "City": "Varanasi",
    "State": "Uttar Pradesh",
    "RegionCode": "VAR",
    "SubRegionCode": "VAR",
    "Latitude": "25.3284",
    "Longitude": "82.995",
    "AvailableFormats": "2D"
  },
  "CMVV": {
    "VenueCode": "CMVV",
    "VenueName": "Chhotu Maharaj Cine Cafe: Varanasi",
    "VenueAddress": "Plot No. 237/3, Madauli, Near St.Johns School, Varanasi, Uttar Pradesh 221003, India",
    "City": "Varanasi",
    "State": "Uttar Pradesh",
    "RegionCode": "VAR",
    "SubRegionCode": "VAR",
    "Latitude": "25.3012",
    "Longitude": "82.9586",
    "AvailableFormats": "2D"
  },
  "SHYP": {
    "VenueCode": "SHYP",
    "VenueName": "Shreyasa Cinema: Pilibhit",
    "VenueAddress": "Sadia Muktkil, 4th KM Milestone, Bisalpur Road, Near Jangrauli Pull, Pilibhit, Uttar Pradesh 262001, India",
    "City": "Pilibhit",
    "State": "Uttar Pradesh",
    "RegionCode": "PIHI",
    "SubRegionCode": "PIHI",
    "Latitude": "28.5715",
    "Longitude": "79.8057",
    "AvailableFormats": "2D"
  },
  "DNCS": {
    "VenueCode": "DNCS",
    "VenueName": "Digigold Nova Cinemaz: Shirur",
    "VenueAddress": "2nd Floor, A Wing, Oxy Gold, Baburao Nagar, Shirur Bypass, Shirur, Maharashtra 412210, India",
    "City": "Shirur",
    "State": "Maharashtra",
    "RegionCode": "SHRU",
    "SubRegionCode": "SHRU",
    "Latitude": "18.818",
    "Longitude": "74.3666",
    "AvailableFormats": "2D"
  },
  "GAJK": {
    "VenueCode": "GAJK",
    "VenueName": "Gajanan Talkies: Khamgaon",
    "VenueAddress": "Gandhi Chowk, Jagdamba Mata Marg, Opposite Congress Office, Khamgaon, Maharashtra 444303, India",
    "City": "Khamgaon",
    "State": "Maharashtra",
    "RegionCode": "KHMG",
    "SubRegionCode": "KHMG",
    "Latitude": "20.7055",
    "Longitude": "76.5675",
    "AvailableFormats": "2D"
  },
  "AKTN": {
    "VenueCode": "AKTN",
    "VenueName": "Aruna Cinemas RGB Laser 4K AC Dolby Atmos",
    "VenueAddress": "Ennaikaran, Railway Road, Kanchipuram, Tamil Nadu 631501, India",
    "City": "Kanchipuram",
    "State": "Tamil Nadu",
    "RegionCode": "KNPM",
    "SubRegionCode": "KNPM",
    "Latitude": "12.8313",
    "Longitude": "79.7091",
    "AvailableFormats": "2D"
  },
  "KAYA": {
    "VenueCode": "KAYA",
    "VenueName": "Karthikeyan Cinemas A/C: Kanchipuram",
    "VenueAddress": "27, Annai Indira Gandhi Salai, Bavaji Nagar, Nellukara Street, Kanchipuram, Tamil Nadu 631502, India",
    "City": "Kanchipuram",
    "State": "Tamil Nadu",
    "RegionCode": "KNPM",
    "SubRegionCode": "KNPM",
    "Latitude": "12.8375",
    "Longitude": "79.7031",
    "AvailableFormats": "2D"
  },